rank,song_name,artist,latitude,longitude,acousticness,danceability,duration,energy,key,liveness,loudness,mode,speechiness,tempo,time_signature,valence,love,joy,surprise,anger,sadness,fear
1,Too Close,Next,44.961,-93.225253,0.019839,0.836748,251.64,0.516902,7,0.28017,-6.219,1,0.051314,99.693,4,0.763303,0.025810768233936996,0.09605294651228877,0.016331069214152158,0.00011764015283843794,0.006498951097794448,0.021432789133758148
2,The Boy Is Mine,Brandy and Monica,0,0,0,0,0,0
3,You're Still The One,Shania Twain,42.333333,-83.033333,0.400007,0.580573,212.2,0.490574,3,0.091094,-8.718,1,0.038706,133.747,4,0.619104,0.04871054396503255,0.003136293122534765,0.04070667185348241,0.014551011188566691,0,0.004887160763596927
4,Truly Madly Deeply,Savage Garden,-27.5,153.016667,0.336938,0.622812,278.49333,0.723345,0,0.100929,-7.806,1,0.027029,84.077,4,0.824301,0.056573131728503985,0.02131764166051131,0.02004273613236262,0.006812407224646296,0.015346705741173625,0.029143785227486015
5,How Do I Live,LeAnn Rimes,32.931523,-96.615821,0.121131,0.574144,261.18667,0.437434,2,0.075995,-9.022,1,0.029303,128.332,4,0.246366,0.15767362217885822,0,0.0046550568310344325,0.003026445736513026,0,0.00873205507473916
6,Together Again,Janet,41.590686,-87.319937,0.09105,0.873221,301.19955,0.593055,0,0.104883,-8.963,1,0.098416,123.093,4,0.489434,0.061765069795598364,0.02310074316712427,0.025631386130266814,0,0.004672540213910913,0.007765033220525742
7,All My Life,K-Ci and JoJo,0,0,0,0,0,0
8,Candle In The Wind 1997 / Something About The Way You Look Tonight,Elton John,0,0,0,0,0,0
9,Nice and Slow,Usher,0.051424190052914535,0,0.0199851005380279,0,0.010040811126287375,0.011024927874190169
10,I Don't Want To Wait,Paula Cole,42.6555556,-70.6208333,0.282306,0.404321,313.81429,0.436257,11,0.087456,-8.68,1,0.047295,178.904,4,0.435352,0.08770529058546893,0.01066007740657552,0.011550005583538699,0,0.0022619893790008136,0.009962923220825533
11,How's It Going To Be,Third Eye Blind,37.784827,-122.727802,0.003159,0.564762,252.42621,0.697452,5,0.091925,-6.778,1,0.031475,80.162,4,0.56864,0.08595765330975345,0.01173670802141868,0.05801518670126814,0.010129136234562828,0,0.020308714055704797
12,"No, No, No",Destiny's Child,29.7605,-95.3698,0.301555,0.703064,142.7058,0.424337,5,0.486079,-6.349,0,0.202417,60.11,4,0.468998,0,0,0,0,0,0
13,My Heart Will Go On,Celine Dion,45.7215,-73.4867,0.071855,0.570579,580.2,0.915238,4,0.105483,-6.168,1,0.038106,130.997,4,0.826097,0,0,0,0,0,0
14,Gettin' Jiggy Wit It,Will Smith,34.0535,-118.245,0.02362,0.869966,228.49288,0.904975,6,0.197362,-3.794,1,0.146628,107.877,4,0.851663,0.018603055327368122,0,0.025283851291868473,0.003277893113689787,0.0007350713898267473,0
15,You Make Me Wanna...,Usher,33.844371,-84.47405,0.104034,0.780365,121.4,0.783884,0,0.25983,-6.207,0,0.069302,82.043,4,0.932707,0.07589845735892638,0.00790005998438254,0.01262842622772414,0.005270413533789963,0.002084352137965452,0.022202266261590317
16,My Way,Usher,33.844371,-84.47405,0.028194,0.776875,273.62404,0.44139,5,0.870222,-14.32,0,0.120142,90.084,4,0.746678,0.06067190057592908,0.01202243021736509,0.02640284473505375,0.0007492637605535944,0,0.003596655773423635
17,My All,Mariah Carey,40.714269,-74.005973,0.396048,0.348545,344.86812,0.519028,6,0.407372,-10.139,0,0.046368,108.05,4,0.263799,0.06183335216142286,0.00405332359673113,0.01553154310817919,0,0.027302129345702923,0.0807434638876216
18,The First Night,Monica,33.844371,-84.47405,0.172122,0.647502,226.49288,0.82006,8,0.274057,-7.913,0,0.069903,152.269,4,0.880734,0.06777472828969874,0,0.02037365848760906,0.01057977002222025,0,0.04669495802391916
19,Been Around The World,Puff Daddy and The Family,0.031153598664798464,0.007551351247508038,0.0007831974208949748,0.0088349317170489,0.001462643301378411,0.003018035597941806
20,Adia,Sarah McLachlan,44.65,-63.6,0.640269,0.49692,249.76803,0.398827,5,0.082043,-12.642,0,0.029673,77.945,4,0.195177,0.0314176138909604,0.010135627674845576,0.013727186578167473,0.008159423394876554,0.035983628226304736,0.0531496659331111
21,Crush,Jennifer Paige,33.9532,-84.5459,0.037039,0.731441,198.47914,0.72415,6,0.120394,-5.652,0,0.029481,114.985,4,0.60228,0.039669707679249044,0.006656594200751817,0.02396033326191058,0,0.0297244995171798,0.018800783159031012
22,Everybody (Backstreet's Back),Backstreet Boys,28.545179,-81.373291,0.047323,0.747269,229.63955,0.38625,10,0.090646,-20.234,0,0.03551,108.027,4,0.44791,0.059684286653624664,0.006129908102609979,0.005759493459972689,0.0064873024787544245,0,0.027976038194034616
23,I Don't Want To Miss A Thing,Aerosmith,42.3586,-71.0567,0.164969,0.383238,298.76,0.661727,2,0.247945,-5.162,1,0.033344,121.154,4,0.139596,0.11123531046833919,0.030029484624395707,0.031229635460660325,0.003769580338199042,0,0.006975141205375645
24,Body Bumpin (Yippie-Yi-Yo),Public Announcement,37.1679,-95.845,0.044253,0.771056,224.44363,0.11494,1,0.385397,-15.84,0,0.077715,122.121,4,0.398823,0,0,0,0,0,0
25,This Kiss,Faith Hill,32.436064,-90.13731,0.187362,0.474205,196.57288,0.787904,11,0.125774,-6.664,1,0.049,186.679,4,0.76115,0.09976582240342355,0.0843805138481512,0.024553256611559743,0,0.0013623951693615148,0.010070389265093814
26,I Don't Ever Want To See You Again,Uncle Sam,42.3586,-71.0567,0.384895,0.418637,340.82621,0.388298,11,0.110693,-11.374,1,0.047235,125.886,3,0.373797,0.1005741263545344,0.0018949711745562994,0.022548402295884753,0,0,0.016516911075836433
27,Let's Ride,Montell Jordan,33.973951,-118.248405,0.037523,0.49789,315.13288,0.573852,1,0.102192,-5.045,1,0.200681,162.95,5,0.765606,0,0,0,0,0,0
28,Sex And Candy,Marcy Playground,40.714269,-74.005973,0.276897,0.635407,185.66354,0.307109,11,0.366474,-19.824,0,0.025958,80.428,4,0.683398,0.07642815190549727,0,0.06774509592928744,0,0.0010273162156726517,0.0669085389480288
29,Show Me Love,Robyn,59.3333333,18.05,0.963637,0.724968,149.87955,0.245799,4,0.090287,-9.965,1,0.041437,160.038,4,0.801922,0.15492879683994615,0,0.04900591618762658,0.010343766852994997,0.0014392802269316788,0.002616302402054591
30,A Song For Mama,Boyz II Men,39.9523,-75.1624,0.559601,0.573522,272.03873,0.187641,7,0.103651,-18.298,1,0.029084,150.367,4,0.159409,0.16193334120680272,0,0.007352036118778516,0,0.027528695326681504,0.01563955342385752
31,What You Want,Mase,40.8077778,-73.9458333,0.001197,0.833556,276.88798,0.633613,10,0.261145,-8.462,0,0.15001,93.733,4,0.837022,0.04756617100229867,0,0.02075948819908056,0.0011959919630579602,0.0006641418835935527,0.003935634340933308
32,Frozen,Madonna,40.702898,-74.010241,0.456514,0.586213,378.86803,0.735757,1,0.163511,-7.953,1,0.034536,108.033,4,0.254061,0,0,0,0,0,0
33,Gone Till November,Wyclef Jean,18.5833,-72.2333,0.098966,0.673548,207.46667,0.478043,4,0.150104,-10.186,1,0.10018,85.929,4,0.441451,0.030462345260464995,0.015674462032528313,0.020905201743173604,0.0007740965023319423,0.00991217868339881,0.004587766011038107
34,My Body,Lsg,29.564,-95.0245,0.498637,0.718167,227.47156,0.170134,3,0.090668,-15.808,0,0.05458,120.019,4,0.409207,0.036600685269232665,0.003943162773994417,0,0.004721242572210983,0.0009418954581401444,0.07343890802805278
35,Tubthumping,Chumbawamba,53.7900308,-2.2433543,0.144289,0.596072,221.40757,0.736839,2,0.199449,-15.947,1,0.054023,103.811,4,0.656816,0.077916951620729,0.07078458537453507,0.10838362822495314,0.007551277390012715,0.00047119966363904015,0
36,Deja Vu (Uptown Baby),Lord Tariq and Peter Gunz,0,0,0,0,0,0
37,I Want You Back,'N Sync,0.13342697437574627,0,0.009810657407341383,0.002184949804969192,0.0023565682840721524,0.04727383212755659
38,When The Lights Go Out,Five,51.5072648,-0.1278328,0.063864,0.850283,247.68635,0.859457,5,0.209033,-5.114,1,0.034393,104.003,4,0.961361,0.04178670431069044,0.01944464262242218,0.015843210378007545,0.00015430273832282572,0.03182931993517785,0.002690690860265135
39,They Don't Know,Jon B.,33.786594,-118.298662,0.6044,0.53437,214.33288,0.383343,3,0.964105,-19.715,0,0.119416,125.902,4,0.558679,0.04494460421219899,0.01601937340968293,0.011598683597841974,0.013926928955608433,0.005092633462036266,0
40,Make Em' Say Uhh!,Master P,29.9537,-90.0777,0.04438,0.388688,317.47156,0.413479,6,0.540737,-20.799,0,0.666155,82.111,4,0.659061,0.004711669228421357,0,0.002851784987554249,0,0.0013556341263012998,0.00770097857175659
41,Make It Hot,Nicole feat. Missy &quot;Misdemeanor&quot; Elliott and Mocha,0.016839990725743444,0.010844853619658243,0.003119813620686664,0.0012505869786555114,0,0.0016968084124792159
42,Never Ever,All Saints,51.5063,-0.12714,0.752539,0.735589,307.66621,0.414886,1,0.055177,-8.287,1,0.035795,134.292,4,0.332885,0.0722328373267189,0.0015490126755945523,0.03008853751447134,0.0021115417763784977,0,0.13327500458887104
43,I Get Lonely,Janet,41.590686,-87.319937,0.212621,0.8115,241.49288,0.499753,7,0.074485,-6.698,0,0.039345,125.121,4,0.565858,0.029000523154822405,0.00963387408593843,0.01802982570372673,0,0.012104382489639992,0.06921907120219863
44,Feel So Good,Mase,40.8077778,-73.9458333,0.287896,0.813253,195.46621,0.712229,11,0.227796,-8.406,0,0.211479,105.183,4,0.585678,0.02042573465160728,0,0.009985742639929665,0,0,0.013984733688455715
45,Say It,Voices Of Theory,39.9523,-75.1624,0.680271,0.438845,269.46621,0.412152,0,0.079166,-10.366,1,0.059394,62.121,3,0.261555,0.09755986435973439,0.00598557805241408,0.00930645658015142,0.004716981958825385,0,0.0068498107145540015
46,Kiss The Rain,Billie Myers,54.0,-2.0,0.001479,0.456884,270.33288,0.682815,9,0.12842,-7.103,1,0.040882,177.963,4,0.277947,0.06626900769984292,0.023223925798531914,0.026818518711246082,0.0009738111527846792,0.005338937703587218,0.013749502340931904
47,Come With Me,Puff Daddy,0,0,0,0,0,0
48,Romeo And Juliet,Sylk-E Fyne,34.0535,-118.245,0.80053,0.839307,276.15492,0.157005,8,0.117169,-22.837,1,0.509564,76.446,4,0.777207,0,0,0,0,0,0
49,It's All About Me,Mya and Sisqo,0,0,0,0,0,0
50,I Will Come To You,Hanson,36.039147,-95.868667,0.513306,0.416962,271.97288,0.857123,10,0.844307,-5.948,1,0.04627,135.928,4,0.342077,0.037296332013370674,0.004500232904762326,0.002116962109085012,0.0021293062978085292,0.006777816269970213,0.0800337708942021
51,One Week,Barenaked Ladies,43.75,-79.2,0.012192,0.67883,170.54667,0.945459,9,0.229571,-4.108,1,0.038867,112.844,4,0.725728,0.024058189169364145,0.022608457642987367,0.01538356510740544,0.008552171755054395,0.006290394591611006,0.0032326281072398216
52,Swing My Way,K.P. and Envyi,0.062471574358837295,0.0020674838604009932,0.014224853339146738,8.665693281961257e-05,0,0.007356163408103081
53,The Arms Of The One Who Loves You,Xscape,33.7483,-84.3911,0.420367,0.647557,260.51955,0.500192,0,0.102004,-7.413,1,0.031784,115.416,4,0.1742,0.12541735540419036,0.009618207719743765,0.015789653529387902,0.01687939187757143,0,0.022625319253163304
54,My Love Is The Shhh!,Somethin' For The People,34.0535,-118.245,0.296887,0.778717,281.74667,0.714599,2,0.156512,-5.886,0,0.036773,126.036,4,0.652484,0.10219713071432533,0,0.020745299965517956,0.00012777915066276613,0.006796862897244161,0.017989523298892907
55,Daydreamin',Tatyana Ali,40.6915,-73.5342,0.091703,0.882789,238.35955,0.573155,1,0.211827,-7.404,1,0.110626,96.972,4,0.80639,0.03368594928450549,0.0020617835290861895,0.008329148497527333,0.0026289500401884968,0.0021761366110545958,0.027774538590568453
56,We're Not Making Love No More,Dru Hill,39.208888,-76.562926,0.33658,0.415957,244.08771,0.160674,3,0.090088,-15.535,0,0.035702,114.278,4,0.189407,0.08256064437237755,0,0.029807918390672955,0.007361521288977933,0,0.010351621351672533
57,Semi-Charmed Life,Third Eye Blind,37.784827,-122.727802,0.004439,0.685636,269.53098,0.487179,5,0.108439,-16.806,0,0.036233,101.927,4,0.907911,0.03835677786984014,0.012515169669846091,0.017071572298111595,0.0028105954421893432,0,0.0011216603084851702
58,I Do,Lisa Loeb,32.781179,-96.790329,0.397899,0.691269,220.71955,0.793025,10,0.2501,-6.172,1,0.033559,110.175,4,0.634164,0.023028356383072417,0.01422186945199474,0.013958408684854363,0.11261504948511299,0.0017204270089901516,0.10492111726479461
59,Lookin' At Me,Mase,40.8077778,-73.9458333,0.002524,0.701779,306.14621,0.484104,9,0.195072,-9.796,1,0.077899,188.055,4,0.694106,0.018457658744504876,0,0.004935978019784608,9.803346069869828e-05,0.0011605269817490085,0.003317263184498328
60,Looking Through Your Eyes,LeAnn Rimes,32.931523,-96.615821,0.618491,0.486673,245.46667,0.270748,10,0.159573,-11.566,1,0.028251,80.126,4,0.194954,0.024606349792457207,0.06494814916815567,0.10516833253836588,0.0021121013755064973,0,0.003418935122148345
61,Lately,Divine,33.6007,-112.283,0.687073,0.676,259.74621,0.559424,9,0.240658,-6.067,1,0.030943,121.022,4,0.365369,0.09462054704808828,0.01379215622484236,0.04183807724853907,0.00558553073782065,0.011377084256875373,0
62,Quit Playing Games (With My Heart),Backstreet Boys,28.545179,-81.373291,0.061604,0.798489,231.61333,0.830224,11,0.206144,-6.313,0,0.033839,100.037,4,0.912159,0.1859849063207599,0.0035679497476138024,0,0.025808496623554663,0,0.009855923907655556
63,I Still Love You,Next,44.961,-93.225253,0.493518,0.675959,254.33288,0.45303,9,0.450441,-10.411,0,0.04953,85.414,4,0.767485,0.043978490235562474,0.0060418911806126565,0.04420242133445007,0.0021814440250682203,0,0.013856545806840226
64,Time After Time,Inoj,40.7146,-74.0071,0.263864,0.748871,251.86621,0.649555,0,0.091474,-7.127,1,0.030684,131.721,4,0.40452,0.009823887104234699,0.002723555837825906,0.12170228525646402,0,0.009800904041867559,0.03437463202482528
65,Are You Jimmy Ray?,Jimmy Ray,37.1679,-95.845,0.122692,0.747665,201.19955,0.914238,10,0.387726,-5.745,0,0.069376,99.08,4,0.68126,0.29570634718952604,0.07375736020289905,0.010136739099034491,0,0.014819020570922806,0.016806289026241553
66,Cruel Summer,Ace Of Base,57.7166667,11.9666667,0.013194,0.721199,215.36,0.840602,1,0.073838,-1.967,0,0.0279,109.98,4,0.900014,0.06072698884606327,0.09185261672596551,0.003341704130713411,0.004716002324634131,0.00724253780957326,0.051812565586495024
67,I Got The Hook Up!,Master P,29.9537,-90.0777,0.04672,0.630362,256.01288,0.70885,11,0.396714,-5.738,0,0.253085,79.344,4,0.809342,0.06281969297479953,0.0024167414830584483,0,0.00019507886271949996,0.016119879308458866,0.0029536489999772582
68,Victory,Puff Daddy and The Family,0.02852053273362143,0.0021476824905340697,0.0039758693459212855,0,0,0.0035549899884388322
69,Too Much,Spice Girls,51.5072648,-0.1278328,0.524369,0.657168,267.95156,0.598011,2,0.319368,-5.735,1,0.031487,120.034,3,0.384521,0.021570666674080693,0.011863671122353996,0.029084031084134616,0.005163292941167202,0,0.08059651210755014
70,Ghetto Supastar (That Is What You Are),Pras Feat. Ol' Dirty Bastard and Mya,0,0,0,0,0,0
71,How Deep Is Your Love,Dru Hill feat. Redman,0.021576976760982716,0.006031642905978843,0.007332552637944367,0,0.004078728203737068,0.008012482704123487
72,Friend Of Mine,Kelly Price,40.714269,-74.005973,0.085548,0.613495,240.37832,0.312068,1,0.202295,-15.596,1,0.042171,119.701,4,0.543174,0.03233988185877586,0,0.007418885743679887,0,0,0.02747360670103943
73,Turn It Up [Remix] / Fire It Up,Busta Rhymes,40.714269,-74.005973,0.005664,0.812191,237.89669,0.847045,6,0.267623,-8.622,0,0.087556,104.3,4,0.886898,0.012583426441529672,0.007505730628749824,0.004444774341098038,0.004079307430317551,0.001017615798750462,0.005529438847054766
74,I'll Be,Edwin McCain,34.848567,-82.402871,0.789984,0.332235,239.38567,0.293151,11,0.110868,-16.194,1,0.032915,136.429,3,0.368193,0.28902947640242793,0.009065215479474711,0.024485605023623548,0.013339490623636818,0.09379839470215352,0
75,Ray Of Light,Madonna,40.702898,-74.010241,0.001007,0.538118,307.93098,0.588023,3,0.129139,-19.806,1,0.031737,127.193,4,0.752111,0,0,0,0,0,0
76,All For You,Sister Hazel,29.652,-82.3232,0.043754,0.632951,219.47288,0.785733,8,0.078146,-5.851,1,0.040296,136.995,4,0.664128,0.032806648650105914,0.013366554876662533,0.06915090600778753,0.005653001660453055,0.00273149503875124,0.05233078620509747
77,Touch It,Monifah,33.7483,-84.3911,0.019097,0.854158,232.32,0.42143,8,0.178614,-13.897,0,0.075066,115.451,4,0.778747,0.09218129714930345,0.005589412477239621,0.021313133123353513,0.002436741338869535,0.003103359844054541,0.0020250573743504524
78,"Money, Power and Respect",Lox,40.9325,-73.8989,0.006614,0.814132,256.63955,0.710731,9,0.213172,-4.982,0,0.261076,95.83,4,0.435749,0,0,0,0,0,0
79,Bitter Sweet Symphony,Verve,53.5422,-2.64556,0.025174,0.408431,275.09288,0.911861,9,0.829445,-6.525,1,0.034268,171.042,4,0.599659,0.03759193484318923,0.004214400997083614,0.058736366336101575,0.04636496079884709,0.026836558356072925,0.026054921401805483
80,Dangerous,Busta Rhymes,40.714269,-74.005973,0.006398,0.885832,203.65016,0.325957,11,0.151378,-19.258,1,0.292241,103.245,4,0.794289,0.007877397703093302,0.004219425147259919,0.010522355789584843,0,0,0.05420543998499802
81,Spice Up Your Life,Spice Girls,51.5072648,-0.1278328,0.010982,0.554101,173.85333,0.992111,5,0.398288,-5.265,1,0.04549,123.989,4,0.671071,0.05430027137843648,0.014766829003563405,0.04863490254709355,0.01877908322047357,0,0.031743196884931726
82,Because Of You,98 Degrees,33.973951,-118.248405,0.23228,0.752159,242.52757,0.377619,0,0.069891,-16.058,1,0.031395,104.475,4,0.650789,0,0,0,0,0,0
83,The Mummers' Dance,Loreena McKennitt,43.366667,-80.983333,0.139173,0.318909,241.10621,0.635446,7,0.71546,-9.399,1,0.045252,135.499,4,0.330662,0.018513549685977432,0.04114031591119973,0.041024010822551034,0,0.006922040728555708,0.015546614697171859
84,All Cried Out,Allure feat. 112,0.051338651739369835,0.1144350665412334,0.0162447570668451,0.0200724522568703,0.02284021440385606,0.004353036331084458
85,Still Not A Player,Big Punisher feat. Joe,0.0328817714150406,0.0045660903412825275,0.01514081648470895,0.0032038912544162645,0.001512236112521248,0.0014402621680725265
86,The One I Gave My Heart To,Aaliyah,40.694481,-73.989319,0.355582,0.638476,230.66077,0.299939,9,0.142506,-15.076,0,0.031625,124.595,4,0.338521,0.12484444544860891,0.014528019399369525,0.01440525864873976,0,0.040926642634437,0.01567194338794864
87,Foolish Games / You Were Meant For Me,Jewel,0,0,0,0,0,0
88,Love You Down,Inoj,40.7146,-74.0071,0.0423,0.751983,257.61333,0.463051,8,0.063163,-8.071,1,0.043743,134.143,4,0.550825,0.20225216488872982,0,0,0.00791603783719882,0.0020943185630437466,0.01726528095531915
89,Do For Love,2Pac,37.868538,-122.50914,0.053218,0.8625,281.59955,0.641664,10,0.065072,-3.889,0,0.323323,95.008,4,0.761183,0.06065343685700174,0.006352754002591691,0.012148249660378587,0.005211666368138639,0.0008611967177351268,0.0036005650718990223
90,Raise The Roof,Luke,38.2589,-92.4366,0.041884,0.819884,207.19955,0.779065,1,0.563038,-8.111,0,0.252368,142.453,4,0.702559,0.014572736812287783,0.004011235523059452,0.0229232791765857,0.02025301724221745,0,0.011739189492649748
91,Heaven,Nu Flavor,33.7667,-118.192,0.816667,0.635413,298.17578,0.404175,6,0.105986,-12.233,1,0.02361,96.193,4,0.346142,0.01227596853592172,0.13247535226683443,0.01301194002149838,0,0,0.010148920175195378
92,The Party Continues,Jd,0,0,0,0,0,0
93,Sock It 2 Me,Missy &quot;Misdemeanor&quot; Elliott feat. Da Brat,0,0,0,0,0,0
94,Butta Love,Next,44.961,-93.225253,0.099413,0.732406,296.14621,0.448459,1,0.081143,-8.345,0,0.047078,108.042,4,0.564228,0.13093223954591868,0,0.0006844252613643181,0.003564725147493488,0,0.012021796852930476
95,A Rose Is Still A Rose,Aretha Franklin,42.347021,-83.060184,0.171491,0.62381,266.13333,0.841213,8,0.025727,-6.358,0,0.253701,175.886,4,0.808808,0.05020278587750947,0,0.0037092321950142107,0.03607230888872944,0.0020462722095143096,0.019546801841632693
96,4 Seasons Of Loneliness,Boyz II Men,39.9523,-75.1624,0.737369,0.32996,292.69288,0.520513,1,0.12105,-10.395,1,0.048473,98.495,4,0.180163,0.016672668797588115,0.005496179211326126,0.03072222974147107,0.007942954419432356,0.008100355941372168,0.04016022704696241
97,Father,LL Cool J,40.7202,-73.2492,0.042482,0.759387,284.44,0.528391,7,0.141544,-10.838,0,0.315001,98.824,4,0.584531,0.08123144659040196,0.007425223108160638,0.010796727303102901,0.007120862933402695,0,0.007686764509950217
98,Thinkin' Bout It,Gerald Levert,41.520052,-81.556235,0.107542,0.724731,391.03955,0.662675,1,0.248913,-5.206,1,0.075878,116.449,4,0.370871,0.040947864504884426,0.006675805260962645,0.017050965796139513,0,0.03713846924183945,0.036152537245656036
99,Nobody's Supposed To Be Here,Deborah Cox,43.666667,-79.416667,0.203901,0.656957,259.22667,0.484357,5,0.292461,-6.734,0,0.035642,119.915,4,0.424398,0.07139398588675229,0.020612693381498983,0.021014039395042153,0.0042028838432064015,0,0.024833044777333994
100,Westside,TQ,33.8953,-118.224,0.164925,0.686407,245.66404,0.473554,7,0.255528,-12.015,1,0.052872,82.517,4,0.423178,0.029508942852125478,0.004222295256337167,0.01980299768245936,0,0,0.0278904910267858
