rank,song_name,artist,latitude,longitude,acousticness,danceability,duration,energy,key,liveness,loudness,mode,speechiness,tempo,time_signature,valence
1,Lonely Boy,Paul Anka,45.416667,-75.7,0.527249,0.559216,142.29333,0.789795,8,0.214614,-7.828,1,0.049353,110.145,3,0.71097
2,The Battle Of New Orleans,Johnny Horton,33.973951,-118.248405,0.743903,0.671493,152.53333,0.849827,9,0.07286,-7.977,1,0.080484,179.84,4,0.917338
3,Tiger,Fabian,31.1689,-100.077,0.789258,0.564137,153.38621,0.773551,0,0.324945,-11.548,1,0.043943,169.914,4,0.877211
4,Waterloo,Stonewall Jackson,34.1491,-78.8756,0.548127,0.598062,145.94667,0.72928,6,0.431399,-5.885,0,0.030718,102.694,4,0.871822
5,A Big Hunk O' Love,Elvis Presley With The Jordanaires
6,My Heart Is An Open Book,"Carl Dobkins, Jr."
7,There Goes My Baby,The Drifters,40.7146,-74.0071,0.00322,0.436947,129.19215,0.37551,9,0.150501,-12.019,1,0.02973,136.257,4,0.727029
8,Lipstick On Your Collar,Connie Francis,40.736101,-74.22509,0.877684,0.594249,140.74957,0.720057,7,0.252748,-10.355,1,0.051091,168.796,4,0.937188
9,Forty Miles Of Bad Road,Duane Eddy And The Rebels
10,Personality,Lloyd Price and His Orchestra
11,Just A Little Too Much,Ricky Nelson
12,Lavender-Blue,Sammy Turner,40.9165,-74.1711,0.38665,0.454234,131.738,0.484012,1,0.314908,-5.645,0,0.037266,117.122,3,0.490468
13,I Only Have Eyes For You,The Flamingos,41.8842,-87.6324,0.900374,0.467752,200.7249,0.466775,5,0.088858,-8.598,1,0.027477,88.656,3,0.335247
14,What A Diff'rence A Day Makes,Dinah Washington,41.850033,-87.650052,0.958548,0.278645,151.32585,0.17713,0,0.13765,-16.958,1,0.040692,169.105,3,0.285854
15,Sweeter Than You,Ricky Nelson
16,Bobby Sox To Stockings,Frankie Avalon,39.9523,-75.1624,0.186203,0.694505,161.65687,0.506207,10,0.174785,-12.027,1,0.028462,123.395,4,0.672877
17,A Boy Without A Girl,Frankie Avalon,39.9523,-75.1624,0.955659,0.342408,120.72068,0.077818,4,0.097466,-21.791,1,0.031214,134.654,4,0.266126
18,Ragtime Cowboy Joe,David Seville And The Chipmunks
19,M.T.A.,The Kingston Trio,37.4447,-122.161,0.866021,0.24983,208.0595,0.353795,5,0.118247,-17.881,1,0.068709,155.388,4,0.305215
20,Twixt Twelve And Twenty,Pat Boone,36.1678,-86.7784,0.859206,0.282665,134.75687,0.500519,0,0.094264,-3.886,1,0.033653,122.858,4,0.291805
21,You're So Fine,The Falcons,-34.9066,-57.9274,0.95747,0.632498,147.79501,0.292178,1,0.102035,-12.716,1,0.03734,116.169,4,0.62706
22,My Wish Came True,Elvis Presley With The Jordanaires
23,Hushabye,The Mystics,40.6551,-73.9489,0.842964,0.477541,231.50621,0.540947,5,0.658669,-12.408,1,0.09433,128.735,4,0.610669
24,Frankie,Connie Francis,40.736101,-74.22509,0.802585,0.516942,153.01288,0.464343,3,0.150883,-9.69,1,0.026303,98.776,3,0.647912
25,I'll Be Satisfied,Jackie Wilson,42.347021,-83.060184,0.22445,0.559524,128.80934,0.612301,7,0.160703,-10.664,0,0.05646,133.195,4,0.911127
26,What'd I Say (Part I & II),Ray Charles and his Orchestra
27,Tallahassee Lassie,Freddy Cannon,34.0535,-118.245,0.324119,0.366407,135.66621,0.88922,2,0.11796,-6.663,1,0.073594,140.133,4,0.252393
28,Here Comes Summer,Jerry Keller,35.3846,-94.4213,0.170797,0.280375,126.60354,0.836695,4,0.58464,-4.032,1,0.066126,83.098,4,0.789454
29,Dream Lover,Bobby Darin,40.714269,-74.005973,0.656929,0.613372,151.23111,0.285679,0,0.518451,-16.984,1,0.035058,129.934,4,0.821678
30,Small World,Johnny Mathis,32.7293,-94.9427,0.885013,0.157674,199.95415,0.190182,4,0.249713,-18.354,1,0.039467,73.996,3,0.27759
31,What Is Love?,The Playmates,41.5541,-73.0462,0.543567,0.672737,140.66667,0.563924,2,0.139353,-11.242,1,0.12059,145.006,4,0.917165
32,"Ciao, Ciao Bambina",Jacky Noguez And His Musette Orchestra
33,It Was I,Skip And Flip
34,Robbin' The Cradle,Tony Bellus,41.8842,-87.6324,0.677186,0.484334,156.5132,0.38034,7,0.180563,-14.931,1,0.031393,136.062,4,0.694893
35,Sea Of Love,Phil Phillips With The Twilights
36,Till There Was You,Anita Bryant,52.6738,-0.65938,0.775465,0.283901,130.43955,0.385938,8,0.234928,-8.687,1,0.030913,103.677,3,0.271929
37,Bongo Rock,Preston Epps,37.8051,-122.273,0.09003,0.561125,147.31955,0.650052,4,0.382894,-16.65,1,0.049458,152.492,4,0.892629
38,The Wonder Of You,Ray Peterson,40.7146,-74.0071,0.768239,0.271473,145.09551,0.319694,5,0.261778,-16.492,1,0.03231,94.209,3,0.200931
39,Mona Lisa,Carl Mann,36.0011,-88.4263,0.74121,0.536515,147.40027,0.834906,0,0.235149,-6.545,1,0.07363,93.286,4,0.915083
40,Only Sixteen,Sam Cooke,41.850033,-87.650052,0.733637,0.68979,118.66667,0.324364,8,0.211004,-12.117,1,0.038776,112.005,4,0.769592
41,This I Swear,The Skyliners,40.4383,-79.9975,0.949688,0.314957,156.61134,0.215268,6,0.363027,-19.153,1,0.030028,68.145,4,0.539544
42,Since You've Been Gone,Clyde McPhatter,35.850295,-79.023205,0.803385,0.4448,147.77596,0.543361,0,0.299094,-11.523,1,0.087117,174.452,4,0.95626
43,Just Keep It Up,Dee Clark,37.1679,-95.845,0.635375,0.477182,132.73288,0.781595,1,0.849931,-11.688,0,0.197857,199.615,4,0.599784
44,Remember When,The Platters,34.0535,-118.245,0.954676,0.245473,185.03519,0.076622,4,0.090124,-21.322,1,0.031227,72.369,4,0.181754
45,The Way I Walk,Jack Scott,42.3178,-83.0339,0.786345,0.592815,159.82245,0.377708,4,0.170423,-19.022,1,0.027501,129.713,4,0.53793
46,The Quiet Three,Duane Eddy His Twangy Guitar And The Rebels
47,Thank You Pretty Baby,Brook Benton,34.313477,-80.612489,0.749607,0.472017,152.25651,0.390597,7,0.848956,-17.453,1,0.085344,135.558,3,0.771505
48,High Hopes,Frank Sinatra and a bunch of kids
49,Ten Thousand Drums,Carl Smith,36.294236,-83.806991,0.780751,0.795565,146.52082,0.649742,3,0.222155,-11.212,1,0.037784,93.094,4,0.907377
50,Lonely Guitar,Annette,43.0958,-75.2428,0.763022,0.373465,149.90803,0.30324,7,0.183081,-12.29,1,0.02868,91.809,4,0.580596
51,Along Came Jones,The Coasters,34.0535,-118.245,0.632795,0.740825,173.70231,0.580286,4,0.133722,-12.347,1,0.399556,106.89,4,0.802516
52,There Is Something On Your Mind,Big Jay McNeely And Band,33.9395,-118.243,0.752016,0.466696,215.84,0.250286,3,0.095306,-12.164,1,0.068944,199.501,3,0.551758
53,Back In The U.S.A.,Chuck Berry,38.6277,-90.1995,0.753605,0.631703,156.89098,0.821989,3,0.12061,-9.739,1,0.078342,79.812,4,0.904122
54,Like Young,Andre Previn With David Rose
55,Quiet Village,The Exotic Sounds of Martin Denny
56,I Know,Perry Como,40.26257,-80.18728,0.833169,0.307862,139.79528,0.224093,11,0.152848,-14.54,1,0.030038,95.319,4,0.231785
57,See You In September,The Tempos,40.4383,-79.9975,0.876088,0.606929,119.53333,0.471816,5,0.20845,-6.98,0,0.031808,118.387,4,0.619581
58,Tall Cool One,The Wailers,18.0157,-76.7973,0.591454,0.593577,142.25288,0.816513,0,0.127233,-7.538,1,0.027941,125.871,4,0.652537
59,Kissin' Time,Bobby Rydell,39.9523,-75.1624,0.158004,0.656928,130.38236,0.69328,8,0.215969,-14.801,1,0.053192,95.732,4,0.927732
60,To A Soldier Boy,The Tassels,49.2604,-123.114,0.874726,0.450497,150.22975,0.082174,0,0.07274,-17.15,1,0.031515,93.586,3,0.273509
61,A Teenager In Love,Dion & The Belmonts,40.8572,-73.8568,0.43816,0.436559,151.18667,0.467649,10,0.136804,-12.187,0,0.029846,79.921,4,0.668064
62,Crackin Up,Bo Diddley,41.902042,-87.658544,0.833375,0.77505,133.3707,0.344339,2,0.21852,-12.716,1,0.045389,113.296,4,0.788732
63,The Three Bells,The Browns,44.7272,-90.1013,0.963106,0.537241,162.57288,0.165742,7,0.20629,-14.096,1,0.042135,110.065,4,0.409826
64,Crossfire,Johnny And The Hurricanes
65,I Still Get Jealous,Joni James,41.8842,-87.6324,0.844695,0.52036,148.6624,0.498785,7,0.416369,-12.423,1,0.060774,111.933,4,0.625288
66,Makin' Love,Floyd Robinson,33.8021,-93.3814,0.811153,0.92442,113.89646,0.187976,6,0.082359,-22.741,1,0.066419,115.198,4,0.968091
67,I'm Gonna Be A Wheel Some Day,Fats Domino,29.9544444,-90.075,0.685,0.552488,141.33288,0.737484,10,0.395475,-11.635,1,0.048933,122.043,4,0.962305
68,Wonderful You,Jimmie Rodgers,32.381605,-88.663489,0.992716,0.296491,152.87955,0.03849,7,0.106578,-22.175,1,0.038613,178.554,4,0.241439
69,Danny Boy,Sil Austin,29.0475,-82.4631,0.38636,0.178204,171.79537,0.360778,3,0.144941,-12.261,1,0.029157,160.102,3,0.367084
70,Broken-Hearted Melody,Sarah Vaughan,40.736101,-74.22509,0.808489,0.413006,142.10667,0.422968,7,0.240441,-14.473,1,0.037763,132.195,4,0.82237
71,With My Eyes Wide Open I'm Dreaming,Patti Page,36.348616,-95.604344,0.823702,0.563473,191.43955,0.089537,1,0.238563,-14.471,1,0.030657,77.655,4,0.386744
72,Little Dipper,The Mickey Mozart Quintet
73,Tennessee Stud,Eddy Arnold,35.407562,-88.642991,0.764163,0.71932,184.61333,0.541376,0,0.212518,-10.003,1,0.031288,94.495,4,0.601638
74,On An Evening In Roma,Dean Martin,40.406817,-80.662786,0.880312,0.189096,163.18694,0.502833,1,0.317148,-7.378,1,0.036157,171.335,3,0.534965
75,Beach Time,Roger Smith,51.1166,-0.18703,0.924176,0.559201,118.67574,0.202296,8,0.089727,-17.48,1,0.034692,128.937,4,0.797164
76,Cry,The Knightsbridge Strings
77,Sugaree,Rusty York,36.8457,-83.3223,0.231151,0.518699,161.19147,0.753944,1,0.313172,-6.288,0,0.032769,144.58,4,0.966852
78,,
79,Mona Lisa,Conway Twitty,34.52955,-90.59177,0.858201,0.49379,146.21333,0.744335,4,0.146367,-9.409,1,0.04054,84.235,4,0.811622
80,I Love An Angel,Little Bill and The Bluenotes
81,Katy Too,Johnny Cash And The Tennessee Two
82,Forty Days,Ronnie Hawkins,36.0632,-94.1579,0.382793,0.643848,137.64,0.985034,9,0.17901,-4.225,1,0.048992,96.546,4,0.672113
83,The Whistling Organ,Dave 'Baby' Cortez,42.3317,-83.0479,0.17824,0.605584,123.99166,0.460949,0,0.087976,-18.784,1,0.064528,80.375,4,0.960522
84,Kansas City,Wilbert Harrison,35.2225,-80.8375,0.6945,0.734863,151.53333,0.581014,1,0.347374,-10.405,1,0.066818,113.084,4,0.83736
85,I'm Coming Home,Marv Johnson,42.3317,-83.0479,0.824419,0.587074,158.41333,0.788405,7,0.355649,-5.699,1,0.038692,150.824,4,0.969278
86,A Girl Like You,Gary Stites
87,Dedicated To The One I Love,The Shirelles,40.855103,-74.126916,0.964031,0.338838,124.82621,0.350642,7,0.301785,-9.848,0,0.04362,81.158,4,0.463103
88,Martinique,The Exotic Sounds of Martin Denny
89,Sweet Someone,Eddie and Betty
90,Linda Lu,Ray Sharpe,32.7486,-97.3292,0.971824,0.781243,130.78621,0.576823,6,0.129874,-11.51,1,0.047822,119.073,4,0.964672
91,"Bells, Bells, Bells (The Bell Song)",Billy & Lillie
92,Velvet Waters,The Megatrons,41.2833333,-70.1,0.804023,0.488699,127.32435,0.431506,3,0.123241,-7.155,1,0.029783,108.646,4,0.246133
93,Summer's Love,Richard Barrett With The Chantels
94,Rockin' In The Jungle,The Eternals,41.8842,-87.6324,0.918077,0.494763,151.13288,0.682913,5,0.090229,-7.494,1,0.05974,133.021,4,0.682867
95,Sleep Walk,Santo & Johnny,40.714269,-74.005973,0.832652,0.733988,140.68417,0.321089,1,0.108833,-6.987,1,0.029428,95.007,3,0.550586
96,So High So Low,LaVern Baker,41.8842,-87.6324,0.56729,0.490907,126.21288,0.932943,3,0.273264,-6.569,1,0.078869,160.953,4,0.893593
97,With Open Arms,Jane Morgan,42.3385,-71.2071,0.715179,0.522434,137.78395,0.376531,10,0.191285,-9.215,1,0.030825,104.418,4,0.600136
98,Half-Breed,Marvin Rainwater,37.687,-97.3356,0.327608,0.625219,149.39383,0.364302,10,0.185657,-14.912,1,0.052651,150.538,4,0.908251
99,You Don't Know Girls,Kathy Linden
100,Who Shot Sam,George Jones,30.0861,-94.1016,0.598259,0.563384,141.25288,0.558968,9,0.224016,-15.096,1,0.034278,154.558,4,0.942588
