rank,song_name,artist,latitude,longitude,acousticness,danceability,duration,energy,key,liveness,loudness,mode,speechiness,tempo,time_signature,valence
1,The Chipmunk Song,The Chipmunks With David Seville
2,Smoke Gets In Your Eyes,The Platters,34.0535,-118.245,0.928675,0.328827,159.30667,0.267139,3,0.180847,-10.972,1,0.029443,113.423,4,0.230792
3,"To Know Him, Is To Love Him",The Teddy Bears
4,Problems,The Everly Brothers,37.6318,-84.634402,0.021717,0.526288,116.93524,0.238199,11,0.06555,-24.625,1,0.071172,129.0,4,0.844909
5,One Night,Elvis Presley,35.169255,-89.990415,0.554468,0.551271,121.87955,0.706894,4,0.957006,-10.04,1,0.193592,119.75,4,0.858102
6,My Happiness,Connie Francis,40.736101,-74.22509,0.125033,0.431567,141.43955,0.334302,8,0.12358,-13.526,1,0.032334,115.742,3,0.270845
7,Tom Dooley,The Kingston Trio,37.4447,-122.161,0.198274,0.785248,194.25388,0.240521,4,0.080891,-17.248,1,0.043021,116.286,4,0.611438
8,A Lover's Question,Clyde McPhatter,35.850295,-79.023205,0.882841,0.670936,150.24,0.433926,0,0.060525,-11.692,1,0.05835,83.034,4,0.946069
9,Gotta Travel On,Billy Grammer,37.9968,-88.9214,0.80315,0.563283,147.68,0.593028,0,0.089507,-6.765,0,0.059849,177.737,4,0.857718
10,Whole Lotta Loving,Fats Domino,29.9544444,-90.075,0.095647,0.690736,98.05955,0.641135,5,0.088181,-10.796,0,0.034672,93.391,4,0.947762
11,Lonesome Town,Ricky Nelson
12,Beep Beep,The Playmates,41.5541,-73.0462,0.622329,0.57785,167.4449,0.432847,10,0.10213,-6.565,1,0.069691,135.727,4,0.706419
13,Bimbombey,Jimmie Rodgers,32.381605,-88.663489,0.468084,0.529357,140.6,0.210729,11,0.069201,-19.66,1,0.04548,179.017,4,0.767254
14,I Got Stung,Elvis Presley,35.169255,-89.990415,0.857586,0.724299,108.82667,0.761908,3,0.216524,-12.417,1,0.06985,97.782,4,0.98106
15,Donna,Ritchie Valens,43.0815,-93.2608,0.985693,0.296948,176.58621,0.662249,6,0.881457,-7.826,1,0.086481,71.515,4,0.579653
16,The Little Drummer Boy,The Harry Simeone Chorale
17,Queen Of The Hop,Bobby Darin,40.714269,-74.005973,0.66428,0.705675,124.99955,0.902674,6,0.069824,-5.731,1,0.045884,145.832,4,0.936175
18,16 Candles,The Crests,34.0735,-118.4,0.930455,0.637636,154.40934,0.39694,7,0.110267,-13.35,0,0.04837,122.424,4,0.735515
19,It's Only Make Believe,Conway Twitty,34.52955,-90.59177,0.943921,0.458495,280.07864,0.395178,9,0.108233,-10.294,1,0.038505,148.771,4,0.391748
20,Lonely Teardrops,Jackie Wilson,42.347021,-83.060184,0.399403,0.591017,161.76145,0.292696,7,0.52395,-14.773,1,0.127603,138.146,4,0.878065
21,The Diary,Neil Sedaka,40.694481,-73.989319,0.292383,0.314568,137.29914,0.523308,7,0.091002,-4.818,0,0.033097,116.845,3,0.541677
22,Manhattan Spiritual,Reg Owen & His Orchestra
23,Goodbye Baby,Jack Scott,42.3178,-83.0339,0.877342,0.73533,129.89288,0.34224,1,0.101585,-11.302,0,0.03635,134.929,4,0.751551
24,Love Is All We Need,Tommy Edwards,35.2196,-80.0195,0.695488,0.539034,161.19229,0.18242,8,0.223324,-22.783,1,0.035817,114.946,3,0.699867
25,I'll Wait For You,Frankie Avalon,39.9523,-75.1624,0.871746,0.224239,177.79955,0.27979,2,0.131493,-9.129,1,0.032946,76.895,4,0.379368
26,Cannonball,Duane Eddy His Twangy Guitar And The Rebels
27,Lucky Ladybug,Billy & Lillie
28,Philadelphia U.S.A.,The Nu Tornados
29,The Teen Commandments,Paul Anka-Geo. Hamilton IV-Johnny Nash
30,That Old Black Magic,Louis Prima And Keely Smith
31,Love You Most Of All,Sam Cooke,41.850033,-87.650052,0.808853,0.652128,135.23293,0.701412,1,0.332494,-4.593,0,0.063229,122.045,4,0.732912
32,Poor Boy,The Royaltones
33,The All American Boy,Bill Parsons,35.9483,-85.0265,0.741137,0.4959,177.29551,0.652277,4,0.413823,-9.591,1,0.122496,151.003,4,0.931434
34,I Got A Feeling,Ricky Nelson
35,C'mon Everybody,Eddie Cochran,34.0535,-118.245,0.174558,0.676709,29.99973,0.89143,4,0.105185,-5.281,1,0.041911,87.897,4,0.913379
36,Stagger Lee,Lloyd Price,29.99171,-90.258065,0.5442,0.643087,173.53333,0.456404,3,0.11581,-15.303,1,0.039225,120.065,4,0.933409
37,(All of a Sudden) My Heart Sings,Paul Anka,45.416667,-75.7,0.739013,0.418659,179.99955,0.556242,6,0.175677,-3.457,1,0.030862,114.575,3,0.232295
38,I Cried A Tear,LaVern Baker,41.8842,-87.6324,0.894318,0.556166,157.56,0.216725,9,0.087779,-13.269,1,0.030559,87.087,3,0.540482
39,The World Outside,The Four Coins,40.259,-80.1855,0.794824,0.218071,177.10621,0.435013,4,0.060136,-8.297,0,0.033237,87.144,4,0.311332
40,Don't Pity Me,Dion & The Belmonts,40.8572,-73.8568,0.768072,0.229699,158.93333,0.368557,2,0.315682,-10.014,1,0.029208,185.093,3,0.379544
41,Peek-A-Boo,The Cadillacs,40.8084,-73.9469,0.677251,0.537011,129.46667,0.861301,9,0.170849,-3.945,1,0.10205,143.097,4,0.962969
42,Topsy II,Cozy Cole,40.761,-74.2099,0.548587,0.507519,219.40535,0.796965,2,0.118691,-8.454,1,0.033925,92.168,4,0.582671
43,It's All In The Game,Tommy Edwards,35.2196,-80.0195,0.865488,0.44393,155.21333,0.387512,3,0.322282,-6.899,1,0.030254,71.251,4,0.708674
44,Turvy II,Cozy Cole,40.761,-74.2099,0.328727,0.655037,152.87955,0.865347,1,0.249226,-9.532,1,0.057792,100.304,4,0.512704
45,Jingle Bell Rock,Bobby Helms,39.1666,-86.5342,0.750358,0.676096,170.00127,0.535466,2,0.053512,-8.382,1,0.028075,120.007,4,0.803821
46,The Wedding,June Valli,40.8572,-73.8568,0.834089,0.505525,157.14349,0.358058,10,0.148882,-7.787,1,0.028799,115.741,4,0.421653
47,,
48,The Hawaiian Wedding Song (Ke Kali Nei Au),Andy Williams,42.2748,-95.0906,0.970979,0.305799,149.43261,0.06916,10,0.35384,-20.363,1,0.033692,67.823,4,0.175655
49,The End,Earl Grant,35.472,-97.5203,0.850187,0.406375,133.90599,0.280069,1,0.101682,-11.805,1,0.032834,91.522,3,0.256911
50,Rocka-Conga,The Applejacks,52.3731,4.89319,0.218382,0.5577,138.39955,0.951953,10,0.266117,-4.133,1,0.073723,125.545,4,0.897836
51,It's Just About Time,Johnny Cash And The Tennessee Two
52,Big Bopper's Wedding,Big Bopper,29.7339,-93.8942,0.705917,0.65664,129.24612,0.446018,3,0.130787,-17.752,1,0.070756,95.509,4,0.974658
53,Green Chri$tma$,Stan Freberg
54,Nobody But You,Dee Clark,37.1679,-95.845,0.668411,0.733004,148.13333,0.252162,2,0.24667,-16.01,0,0.035795,116.74,4,0.587075
55,Chantilly Lace,Big Bopper,29.7339,-93.8942,0.719906,0.477192,141.97288,0.594411,8,0.098562,-10.552,1,0.103195,172.411,5,0.923622
56,Pledging My Love,Roy Hamilton,31.7323,-84.1722,0.969391,0.312282,158.69342,0.235846,8,0.104283,-10.599,1,0.038048,175.162,4,0.215377
57,Try Me,James Brown And The Famous Flames
58,Teasin',Quaker City Boys
59,Blue Hawaii,Billy Vaughn And His Orchestra
60,Red River Rose,The Ames Brothers
61,"Wiggle, Wiggle",The Accents,42.6514,-73.7552,0.823004,0.539503,122.61878,0.643996,7,0.110237,-6.946,1,0.03126,96.085,4,0.905365
62,Hideaway,The Four Esquires
63,Walking Along,The Diamonds,34.0535,-118.245,0.737787,0.428255,187.21333,0.790095,0,0.258093,-10.476,0,0.163692,131.252,4,0.657211
64,Need You,Donnie Owens
65,A Letter To An Angel,Jimmy Clanton,30.4434,-91.187,0.958159,0.405243,169.37796,0.177323,3,0.274997,-12.214,1,0.03173,100.256,4,0.330427
66,The Mocking Bird,The Four Lads,43.6486,-79.3853,0.321445,0.516217,151.11356,0.731503,1,0.056582,-15.135,1,0.181041,152.888,4,0.426805
67,Dreamy Eyes,Johnny Tillotson,30.3314,-81.6558,0.862441,0.513709,144.36,0.385354,4,0.113964,-10.436,1,0.03185,124.365,3,0.50641
68,Tea For Two Cha Cha,The Tommy Dorsey Orchestra
69,"The Bluebird, The Buzzard & The Oriole",Bobby Day
70,Come Prima,Tony Dallara,45.4689,9.18103,0.738832,0.530663,117.88,0.181913,2,0.072716,-15.964,1,0.042916,75.36,4,0.79639
71,Don't You Know Yockomo,Huey piano Smith With His Clowns
72,Sweet Little Rock And Roller,Chuck Berry,38.6277,-90.1995,0.83054,0.522049,124.89288,0.787429,0,0.641612,-8.159,1,0.044275,154.289,4,0.960646
73,You Are Beautiful,Johnny Mathis,32.7293,-94.9427,0.945659,0.250858,191.42531,0.293152,2,0.10968,-12.492,1,0.032156,79.745,4,0.208926
74,Sing Sing Sing,Bernie Lowe Orchestra
75,The Fool And The Angel,Bobby Helms,39.1666,-86.5342,0.978056,0.421199,146.67755,0.193588,6,0.215445,-11.485,1,0.030575,109.97,3,0.640379
76,Come Prima (Koma Preema),Polly Bergen
77,(I Wanna) Dance With The Teacher,The Olympics,34.0535,-118.245,0.7604,0.5906,112.97288,0.784841,0,0.080522,-7.434,1,0.040429,83.557,4,0.960072
78,Peter Gunn,Ray Anthony and His Orchestra
79,I Talk To The Trees,Edmundo Ros and His Orchestra
80,La Bamba,Ritchie Valens,43.0815,-93.2608,0.045911,0.511649,119.09288,0.817112,1,0.414116,-6.112,1,0.121057,76.447,4,0.900911
81,Yellow Bird,The Mills Brothers,40.1476,-84.2402,0.995728,0.532219,217.37288,0.165208,4,0.138912,-20.392,1,0.066777,81.985,3,0.409996
82,Let's Love,Johnny Mathis,32.7293,-94.9427,0.681774,0.409635,163.45224,0.348061,3,0.082118,-18.784,1,0.052067,118.544,4,0.55345
83,The Girl On Page 44,The Four Lads,43.6486,-79.3853,0.735346,0.581104,178.17288,0.469346,9,0.134507,-11.669,0,0.027658,103.905,4,0.747584
84,May You Always,The McGuire Sisters,39.5099,-84.4036,0.842449,0.403779,174.97288,0.146487,10,0.149926,-15.772,0,0.02992,81.243,4,0.214508
85,Pretty Girls Everywhere,Eugene Church and The Fellows
86,The Little Space Girl,Jesse Lee Turner,31.1689,-100.077,0.580484,0.529556,171.79955,0.519382,3,0.274843,-3.025,1,0.053779,170.386,4,0.567436
87,Pussy Cat,The Ames Brothers
88,The One Rose (That's Left In My Heart),Teresa Brewer,41.6538,-83.5363,0.933758,0.283325,146.42667,0.308456,7,0.204452,-12.185,0,0.03207,91.223,4,0.21953
89,Teach Me Tonight Cha Cha,The DeCastro Sisters
90,Mr. Success,Frank Sinatra,40.746851,-74.033934,0.991614,0.530676,162.50689,0.068764,3,0.129663,-27.52,1,0.040112,125.796,4,0.629529
91,I'll Remember Tonight,Pat Boone,36.1678,-86.7784,0.895073,0.276499,143.26358,0.177137,5,0.236459,-17.567,1,0.030544,93.039,3,0.48836
92,Cinderella,The Four Preps,34.0535,-118.245,0.178789,0.674993,106.86694,0.633715,4,0.138876,-9.902,1,0.035708,115.198,4,0.981484
93,Funny,Jesse Belvin,29.4245,-98.4946,0.752607,0.522052,147.94621,0.422459,7,0.182827,-11.628,1,0.0329,114.039,4,0.662427
94,Forget Me Not,Kalin Twins,41.3747,-74.6912,0.690475,0.624616,145.12,0.502079,1,0.049738,-8.325,1,0.069407,81.757,4,0.92287
95,That's Why I Cry,Buddy Knox,37.1679,-95.845,0.306566,0.508477,118.20408,0.893113,0,0.078385,-9.239,1,0.044934,174.185,4,0.971956
96,Heartbeat,Buddy Holly,33.5777778,-101.8547222,0.836038,0.60212,129.44957,0.389967,9,0.112695,-9.149,1,0.035792,149.511,4,0.828035
97,Call Me,Johnny Mathis,32.7293,-94.9427,0.685313,0.226845,168.46621,0.381408,10,0.217577,-13.997,1,0.03451,94.818,5,0.440933
98,Tall Paul,Annette With The Afterbeats
99,Sermonette,Della Reese,42.3317,-83.0479,0.218217,0.533064,147.17342,0.082576,7,0.096143,-22.168,0,0.295317,135.446,4,0.519698
100,Gazachstahagen,The Wild-Cats
