rank,song_name,artist,latitude,longitude,acousticness,danceability,duration,energy,key,liveness,loudness,mode,speechiness,tempo,time_signature,valence
1,The Theme From A Summer Place,Percy Faith And His Orchestra
2,Handy Man,Jimmy Jones,35.1497,-90.0489,0.689454,0.505541,123.89288,0.654947,10,0.184489,-8.653,1,0.055446,72.426,4,0.739901
3,He'll Have To Go,Jim Reeves,32.166,-94.3418,0.937205,0.502151,142.6,0.244653,1,0.108554,-14.636,1,0.030206,80.89,3,0.241739
4,Teen Angel,Mark Dinning,36.9939,-98.0366,0.957666,0.562426,161.72408,0.137455,0,0.201477,-14.453,1,0.033863,101.063,4,0.243773
5,What In The World's Come Over You,Jack Scott,42.3178,-83.0339,0.943645,0.564485,162.00395,0.08307,4,0.106607,-19.989,1,0.031548,77.633,4,0.49007
6,Beyond The Sea,Bobby Darin,40.714269,-74.005973,0.878386,0.422837,168.90866,0.328148,7,0.159498,-16.861,0,0.057324,139.449,4,0.39031
7,Running Bear,Johnny Preston,29.8993,-93.9294,0.796978,0.708176,214.58395,0.340102,10,0.102788,-12.094,1,0.14904,122.383,4,0.9159
8,Let It Be Me,The Everly Brothers,37.6318,-84.634402,0.958653,0.212134,162.12454,0.032479,7,0.240131,-26.809,1,0.044187,173.371,4,0.23216
9,Baby (You've Got What It Takes),Dinah Washington & Brook Benton
10,Wild One,Bobby Rydell,39.9523,-75.1624,0.492822,0.782731,161.86667,0.707202,8,0.096169,-11.232,1,0.186946,143.599,4,0.864319
11,Where Or When,Dion & The Belmonts,40.8572,-73.8568,0.733326,0.475932,160.37333,0.3623,8,0.218728,-6.316,1,0.027127,110.077,3,0.374372
12,Lonely Blue Boy,Conway Twitty,34.52955,-90.59177,0.816973,0.750905,129.28825,0.248442,1,0.156339,-19.379,1,0.098923,115.706,3,0.768351
13,Forever,The Little Dippers,39.87114,-83.070343,0.381745,0.540704,144.28,0.436593,5,0.128035,-9.247,1,0.024232,72.002,4,0.574339
14,Down By The Station,The Four Preps,34.0535,-118.245,0.62242,0.748206,159.8,0.501511,3,0.106476,-13.471,1,0.039344,119.71,4,0.966355
15,Harbor Lights,The Platters,34.0535,-118.245,0.991872,0.231358,180.81914,0.36571,4,0.826495,-10.5,1,0.038683,76.932,3,0.290036
16,Sweet Nothin's,Brenda Lee,33.844371,-84.47405,0.844166,0.785842,134.7824,0.3541,5,0.209684,-13.576,1,0.058053,126.31,4,0.961042
17,Tracy's Theme,Spencer Ross
18,Midnite Special,Paul Evans,40.7038,-73.8317,0.747549,0.626478,134.87955,0.454025,6,0.059727,-11.441,1,0.129295,136.516,4,0.805574
19,Lady Luck,Lloyd Price and His Orchestra
20,You Got What It Takes,Marv Johnson,42.3317,-83.0479,0.380525,0.614495,163.41669,0.606431,7,0.37005,-11.845,1,0.059427,136.912,4,0.961196
21,Pretty Blue Eyes,Steve Lawrence,40.6551,-73.9489,0.708182,0.557418,110.03601,0.396164,5,0.406184,-16.564,1,0.038135,127.648,4,0.857941
22,Rockin' Little Angel,Ray Smith,36.9465,-88.7308,0.79325,0.577356,135.09333,0.833471,0,0.154139,-3.836,1,0.101472,158.337,4,0.959485
23,Delaware,Perry Como,40.26257,-80.18728,0.764004,0.508334,142.17333,0.939579,6,0.109566,-6.343,1,0.146976,199.615,4,0.751493
24,Bulldog,The Fireballs,36.9053,-104.439,0.153507,0.537033,140.53333,0.932931,9,0.093706,-11.122,1,0.123564,157.605,4,0.21323
25,Country Boy,Fats Domino,29.9544444,-90.075,0.571793,0.587594,137.57333,0.743013,3,0.096614,-8.368,1,0.036008,103.296,4,0.927685
26,T.L.C. Tender Love And Care,Jimmie Rodgers,32.381605,-88.663489,0.820847,0.458845,137.26621,0.312585,8,0.299882,-13.995,0,0.032825,141.627,4,0.557295
27,Beatnik Fly,Johnny And The Hurricanes
28,Little Bitty Girl,Bobby Rydell,39.9523,-75.1624,0.678658,0.580634,149.12,0.573668,1,0.252638,-6.958,1,0.048443,120.16,4,0.77317
29,El Paso,Marty Robbins,33.531753,-112.177935,0.77407,0.59507,280.05832,0.738876,2,0.21203,-3.895,1,0.028424,105.981,3,0.836092
30,Too Much Tequila,The Champs,34.0535,-118.245,0.499374,0.788372,132.26667,0.432401,6,0.101807,-13.757,1,0.082803,117.582,4,0.831787
31,Lucky Devil,"Carl Dobkins, Jr."
32,"Go, Jimmy, Go",Jimmy Clanton,30.4434,-91.187,0.766303,0.502195,128.88771,0.73146,0,0.103253,-7.41,1,0.04451,137.333,4,0.875323
33,"Shimmy, Shimmy, Ko-Ko-Bop",Little Anthony And The Imperials
34,(There Was A) Tall Oak Tree,Dorsey Burnette,35.1497,-90.0489,0.207513,0.735161,126.68762,0.250399,7,0.568622,-18.866,1,0.052953,133.016,4,0.626868
35,Time And The River,Nat King Cole,32.356988,-86.257817,0.94881,0.444668,139.61732,0.171111,10,0.138917,-19.499,1,0.029607,83.958,4,0.374427
36,Crazy Arms,Bob Beckham,37.1679,-95.845,0.356839,0.781814,145.57995,0.334851,7,0.055097,-11.688,1,0.034585,122.481,4,0.851006
37,Baby What You Want Me To Do,Jimmy Reed,33.43595,-90.820653,0.946549,0.581966,144.42667,0.301897,9,0.093145,-11.624,1,0.035256,94.288,4,0.640632
38,China Doll,The Ames Brothers
39,Am I That Easy To Forget,Debbie Reynolds,31.7592,-106.487,0.786132,0.31796,139.72853,0.268436,10,0.194678,-15.845,1,0.039859,79.6,4,0.311318
40,Outside My Window,The Fleetwoods,47.0392,-122.891,0.878885,0.329526,130.53288,0.025354,1,0.123046,-18.618,1,0.03799,93.396,3,0.127767
41,Puppy Love,Paul Anka,45.416667,-75.7,0.468069,0.280212,159.58621,0.452758,8,0.333335,-10.359,1,0.03435,66.74,4,0.383706
42,Too Pooped To Pop (Casey),Chuck Berry
43,Money (That's what I want),Barrett Strong,43.7427,-84.6217,0.394269,0.641057,156.66458,0.737173,5,0.199375,-6.769,1,0.031425,133.538,4,0.969079
44,Why,Frankie Avalon,39.9523,-75.1624,0.806331,0.489893,152.90295,0.154222,5,0.247732,-15.991,1,0.030223,95.25,4,0.591228
45,The Big Hurt,Miss Toni Fisher
46,Eternally,Sarah Vaughan,40.736101,-74.22509,0.961262,0.150334,143.3834,0.17454,5,0.108017,-19.16,1,0.037621,171.14,4,0.214326
47,This Magic Moment,The Drifters,62.0,15.0,0.035414,0.241213,158.84317,0.705367,9,0.099818,-3.732,0,0.03263,136.689,4,0.606186
48,On The Beach,Frank Chacksfield And His Orch.
49,Bad Boy,Marty Wilde,51.4711,0.02354,0.551841,0.592341,142.76,0.340174,9,0.133478,-11.514,1,0.035399,132.056,4,0.654691
50,(Welcome) New Lovers,Pat Boone,36.1678,-86.7784,0.88597,0.711351,146.58757,0.184161,8,0.134882,-17.812,1,0.034494,120.871,4,0.741105
51,Fannie Mae,Buster Brown,38.8991,-77.029,0.994037,0.600758,171.1727,0.396571,6,0.270448,-14.696,1,0.040062,124.353,4,0.674277
52,Chattanooga Shoe Shine Boy,Freddy Cannon,34.0535,-118.245,0.834792,0.589206,137.21832,0.826008,2,0.265528,-8.558,1,0.047573,88.061,4,0.934398
53,About This Thing Called Love,Fabian,31.1689,-100.077,0.587195,0.617264,161.02621,0.890164,11,0.562588,-6.708,0,0.037005,130.573,4,0.734402
54,Why Do I Love You So,Johnny Tillotson,30.3314,-81.6558,0.849092,0.396076,125.66621,0.300267,11,0.203887,-11.205,1,0.032097,152.679,4,0.535863
55,Sixteen Reasons,Connie Stevens,40.6551,-73.9489,0.730881,0.340044,118.67955,0.419531,10,0.082559,-8.82,1,0.034839,112.932,3,0.499599
56,Harlem Nocturne,The Viscounts,51.5063,-0.12714,0.93889,0.422158,146.80553,0.05319,3,0.103176,-26.891,1,0.058504,79.34,4,0.480159
57,Darling Lorraine,The Knockouts,59.3322,18.0624,0.89771,0.252246,217.21061,0.275248,6,0.140414,-13.185,1,0.032265,74.745,4,0.360225
58,Waltzing Matilda,Jimmie Rodgers,32.381605,-88.663489,0.80195,0.717988,148.77365,0.424119,10,0.061464,-19.279,1,0.039492,126.98,4,0.67271
59,The Village Of St. Bernadette,Andy Williams,42.2748,-95.0906,0.983293,0.151005,202.71351,0.194212,8,0.126837,-14.958,1,0.032477,176.609,3,0.319331
60,String Along,Fabian,31.1689,-100.077,0.706435,0.583763,140.54993,0.729798,2,0.108772,-5.225,1,0.028358,105.665,4,0.960893
61,O Dio Mio,Annette,42.3281,-83.7336,0.761481,0.386359,167.62236,0.370717,5,0.119617,-12.468,1,0.032606,116.386,4,0.541463
62,Mama,Connie Francis,40.736101,-74.22509,0.96198,0.283898,237.99955,0.094199,0,0.159339,-16.997,1,0.039721,81.729,1,0.128294
63,Lawdy Miss Clawdy,Gary Stites
64,Just A Little Bit,Rosco Gordon,35.1497,-90.0489,0.604854,0.731098,165.73288,0.439014,0,0.071225,-13.202,1,0.049085,138.019,4,0.962825
65,Sleepy Lagoon,The Platters,34.0535,-118.245,0.979843,0.26775,160.95955,0.4301,0,0.343671,-6.655,0,0.036114,69.972,4,0.420231
66,Paradise,Sammy Turner,40.9165,-74.1711,0.791648,0.461696,125.02159,0.419332,4,0.26658,-9.419,0,0.031691,98.324,4,0.6049
67,Clementine,Jan & Dean,34.0535,-118.245,0.696019,0.363674,118.73288,0.727499,0,0.098056,-12.718,1,0.039904,166.501,4,0.893631
68,Angela Jones,Johnny Ferguson,54.5953,-5.93452,0.830801,0.641964,148.26667,0.23096,1,0.099922,-13.84,1,0.044327,126.913,4,0.744371
69,Little Coco Palm,Jerry Wallace,40.1703,-94.7363,0.642076,0.444635,140.44186,0.671805,1,0.274659,-14.912,0,0.04468,75.443,4,0.766193
70,El Matador,The Kingston Trio,37.4447,-122.161,0.827949,0.503753,138.0298,0.622314,6,0.066959,-5.056,0,0.031599,85.933,4,0.459766
71,Alvin's Orchestra,David Seville And The Chipmunks
72,Anyway The Wind Blows,Doris Day,39.166759,-84.53822,0.937496,0.786211,144.64082,0.391021,7,0.169807,-15.788,1,0.088391,100.596,4,0.634524
73,Teensville,Chet Atkins,36.202,-83.7442,0.612608,0.424508,132.61293,0.698802,4,0.142297,-7.82,1,0.042438,204.452,4,0.435719
74,I Was Such A Fool (To Fall In Love With You),The Flamingos,41.8842,-87.6324,0.69783,0.364978,172.61333,0.389901,10,0.103455,-12.036,1,0.028779,100.319,4,0.252495
75,Don't Fence Me In,Tommy Edwards,35.2196,-80.0195,0.355564,0.646214,146.39955,0.311369,8,0.199816,-15.14,1,0.112867,136.866,4,0.688867
76,Let It Rock,Chuck Berry,38.6277,-90.1995,0.311079,0.351508,222.46621,0.774457,0,0.468129,-9.63,1,0.185821,166.498,4,0.494601
77,Teddy,Connie Francis,40.736101,-74.22509,0.784153,0.192282,167.61569,0.240828,5,0.251094,-16.406,1,0.031866,199.776,3,0.437785
78,Way Down Yonder In New Orleans,Freddie Cannon
79,Sandy,Larry Hall,39.1064,-84.5047,0.033182,0.275738,145.28109,0.653543,0,0.374019,-5.751,1,0.035841,151.313,4,0.776056
80,Greenfields,The Brothers Four,47.6036,-122.329,0.793999,0.365838,219.95955,0.443453,9,0.913404,-12.441,0,0.043845,94.745,3,0.291821
81,Time After Time,Frankie Ford,37.1679,-95.845,0.565445,0.523686,137.01333,0.330847,0,0.22645,-10.174,0,0.039455,134.512,4,0.715407
82,Summer Set,Monty Kelly And His Orchestra
83,Werewolf,The Frantics,34.4717,-81.8807,0.524476,0.629555,131.46667,0.876792,0,0.112295,-7.475,1,0.076096,113.544,4,0.328713
84,Starbright,Johnny Mathis,32.7293,-94.9427,0.936268,0.289004,157.6224,0.499948,5,0.349568,-9.133,1,0.03091,98.488,4,0.480175
85,Chattanooga Choo Choo,Ernie Fields & Orch.
86,(Baby) Hully Gully,The Olympics,34.0535,-118.245,0.748458,0.705529,213.2371,0.583596,2,0.388297,-9.821,1,0.035583,115.463,4,0.919615
87,That Old Feeling,Kitty Kallen,39.9523,-75.1624,0.986748,0.302139,150.71955,0.356246,6,0.176769,-11.252,1,0.032384,66.019,4,0.07743
88,It's Time To Cry,Paul Anka,45.416667,-75.7,0.319821,0.393832,145.99955,0.504765,8,0.364094,-6.311,1,0.029091,112.391,3,0.452564
89,The Same Old Me,Guy Mitchell,42.3317,-83.0479,0.815969,0.320789,146.10621,0.557535,7,0.165848,-8.358,1,0.03302,173.369,4,0.784576
90,Step By Step,The Crests,34.0735,-118.4,0.789961,0.367986,143.42921,0.731816,9,0.335094,-5.218,0,0.081941,150.184,4,0.955715
91,Secret Of Love,Elton Anderson with Sid Lawrence Combo
92,(Do The) Mashed Potatoes (Part 1),Nat Kendrick And The Swans
93,Let The Little Girl Dance,Billy Bland,34.235,-77.946,0.636067,0.508808,139.44,0.224425,5,0.130543,-19.248,1,0.085586,142.809,4,0.814105
94,Up Town,Roy Orbison,34.155524,-99.284002,0.710375,0.5604,128.67955,0.479684,7,0.12003,-12.745,1,0.035475,119.91,4,0.858342
95,You Don't Know Me,Lenny Welch,40.217,-74.013,0.473401,0.611668,177.73288,0.275299,4,0.150445,-12.142,1,0.02517,98.986,3,0.302773
96,Mountain Of Love,Harold Dorman,34.0735,-118.4,0.81015,0.206465,142.8371,0.850963,4,0.185558,-3.28,1,0.05137,90.459,4,0.878428
97,Road Runner,Bo Diddley,41.902042,-87.658544,0.72381,0.444977,168.10667,0.579017,4,0.401595,-12.164,1,0.069476,130.011,4,0.863959
98,Among My Souvenirs,Connie Francis,40.736101,-74.22509,0.812792,0.509016,64.0634,0.29418,9,0.231009,-12.621,1,0.04278,113.019,3,0.333428
99,The Old Payola Roll Blues (Side I),Stan Freberg
100,Just Give Me A Ring,Clyde McPhatter,35.850295,-79.023205,0.759626,0.686538,117.95692,0.806159,11,0.283739,-5.388,1,0.04157,139.73,4,0.964281
