rank,song_name,artist,latitude,longitude,acousticness,danceability,duration,energy,key,liveness,loudness,mode,speechiness,tempo,time_signature,valence
1,Travelin' Man,Ricky Nelson
2,Moody River,Pat Boone,36.1678,-86.7784,0.784202,0.764403,152.5937,0.413326,3,0.087192,-9.142,1,0.030682,130.765,4,0.486952
3,Running Scared,Roy Orbison,34.155524,-99.284002,0.195382,0.403453,134.2,0.356699,9,0.075536,-12.751,1,0.031123,125.264,3,0.489661
4,Stand By Me,Ben E. King,36.3299,-78.3987,0.77262,0.623283,175.83887,0.326166,9,0.535863,-9.278,1,0.035064,117.442,4,0.547757
5,Raindrops,Dee Clark,37.1679,-95.845,0.162554,0.566333,176.33288,0.45357,8,0.367048,-11.299,1,0.036989,119.893,4,0.667229
6,The Writing On The Wall,Adam Wade,40.4383,-79.9975,0.769193,0.530742,148.1922,0.48444,1,0.111532,-9.317,1,0.033073,124.335,4,0.781709
7,I Feel So Bad,Elvis Presley,35.169255,-89.990415,0.915609,0.547441,173.73546,0.919715,5,0.097011,-9.878,1,0.062477,94.294,4,0.738909
8,Every Beat Of My Heart,Pips,3.94515,114.402,0.911458,0.300943,122.62621,0.241736,5,0.153103,-10.75,0,0.030779,171.123,3,0.142694
9,Quarter To Three,U.S. Bonds,30.3314,-81.6558,0.957414,0.391305,152.56676,0.833349,0,0.854939,-8.457,0,0.265464,162.053,3,0.829046
10,The Boll Weevil Song,Brook Benton,34.313477,-80.612489,0.380207,0.775157,149.13261,0.456519,1,0.3328,-10.785,1,0.345791,139.145,4,0.757084
11,Those Oldies But Goodies (Remind Me Of You),Little Caesar and The Romans
12,Mama Said,The Shirelles,40.855103,-74.126916,0.651907,0.648048,131.39546,0.453583,4,0.154554,-12.186,1,0.045095,140.732,4,0.867632
13,Barbara-Ann,The Regents,40.8572,-73.8568,0.832558,0.233441,137.99347,0.738435,5,0.230278,-5.037,1,0.048453,167.864,4,0.534508
14,You Always Hurt The One You Love,Clarence Henry
15,Hello Mary Lou,Ricky Nelson
16,Daddy's Home,Shep And The Limelites
17,Tossin' And Turnin',Bobby Lewis,37.8224,-85.6909,0.24732,0.57624,159.64,0.715656,0,0.128875,-8.914,1,0.038591,142.687,4,0.964196
18,Hello Walls,Faron Young,32.5146,-93.7473,0.825657,0.598866,134.99955,0.303078,0,0.589918,-14.831,1,0.036267,111.678,4,0.864192
19,A Hundred Pounds Of Clay,Gene McDaniels,39.103,-94.5831,0.553427,0.706335,143.67347,0.320459,0,0.118941,-11.241,1,0.041804,128.537,4,0.82191
20,Tragedy,The Fleetwoods,47.0392,-122.891,0.974972,0.222175,166.21669,0.21596,1,0.396935,-11.98,1,0.033494,182.119,3,0.236233
21,Dance On Little Girl,Paul Anka,45.416667,-75.7,0.519377,0.642227,139.99955,0.458022,8,0.305139,-16.516,1,0.034241,119.631,4,0.881152
22,Mother-In-Law,Ernie K-Doe,29.9537,-90.0777,0.190192,0.735394,151.90667,0.610894,0,0.152359,-8.254,0,0.028299,129.864,4,0.804138
23,Yellow Bird,Arthur Lyman Group
24,Peanut Butter,The Marathons
25,Little Egypt (Ying-Yang),The Coasters,34.0535,-118.245,0.620204,0.262479,182.33424,0.321955,9,0.668888,-11.856,1,0.038231,68.066,4,0.283108
26,Rama Lama Ding Dong,The Edsels,41.0719,-80.5994,0.625156,0.622521,145.31955,0.437125,1,0.172195,-13.892,1,0.048118,123.888,4,0.936309
27,I'm A Fool To Care,Joe Barry,40.0157,-105.279,0.979589,0.636631,141.73995,0.195205,5,0.111142,-19.463,1,0.03567,88.078,4,0.90383
28,Breakin' In A Brand New Broken Heart,Connie Francis,40.736101,-74.22509,0.788506,0.400735,157.94168,0.261987,0,0.186425,-8.341,1,0.028255,106.037,4,0.206445
29,Runaway,Del Shannon,40.714269,-74.005973,0.74289,0.581738,137.87383,0.38313,10,0.153711,-15.562,1,0.086398,152.317,4,0.744518
30,Little Devil,Neil Sedaka,40.694481,-73.989319,0.62637,0.550382,161.27955,0.301229,5,0.080894,-25.397,1,0.037037,78.414,4,0.911141
31,Lullaby Of Love,Frank Gari,37.1679,-95.845,0.832349,0.563352,137.58621,0.398993,3,0.22861,-14.884,1,0.110319,179.969,4,0.954118
32,Temptation,The Everly Brothers,37.6318,-84.634402,0.525051,0.293482,133.85333,0.590941,2,0.607522,-9.851,1,0.039813,138.839,4,0.544938
33,What A Surprise,Johnny Maestro The Voice Of The Crests
34,Girl Of My Best Friend,Ral Donner,41.8842,-87.6324,0.857513,0.647538,136.56816,0.329696,1,0.124077,-9.908,0,0.035872,134.649,4,0.725028
35,Triangle,Janie Grant
36,Exodus,Eddie Harris,41.8842,-87.6324,0.840492,0.559493,401.41288,0.212258,9,0.098667,-15.579,0,0.033355,117.787,4,0.481175
37,Never On Sunday,Don Costa And His Orchestra And Chorus
38,Count Every Star,Donnie and The Dreamers
39,The Bilbao Song,Andy Williams,42.2748,-95.0906,0.979958,0.374439,133.97787,0.498366,0,0.111881,-9.526,1,0.036567,174.842,4,0.94536
40,Better Tell Him No,The Starlets,55.8578,-4.24251,0.721451,0.614598,154.47959,0.594855,8,0.376544,-4.873,1,0.036556,132.034,4,0.885448
41,Tell Me Why,The Belmonts,40.8572,-73.8568,0.783151,0.274086,156.35669,0.19419,5,0.53546,-19.566,1,0.032246,161.086,4,0.845443
42,Halfway To Paradise,Tony Orlando,40.7146,-74.0071,0.562009,0.47996,153.67837,0.464611,4,0.111626,-10.679,1,0.039442,116.973,4,0.693957
43,Heart And Soul,The Cleftones,40.7018,-73.8084,0.789151,0.512612,113.26649,0.45636,1,0.884487,-10.74,1,0.032831,74.13,4,0.908557
44,It Keeps Rainin',Fats Domino,29.9544444,-90.075,0.163224,0.81197,164.19374,0.644171,5,0.16601,-9.15,1,0.034349,119.257,4,0.975375
45,Every Beat Of My Heart,Gladys Knight And The Pips
46,Portrait Of My Love,Steve Lawrence,40.6551,-73.9489,0.931004,0.318227,172.15955,0.229258,0,0.240921,-11.419,1,0.028017,90.883,4,0.254827
47,That Old Black Magic,Bobby Rydell,39.9523,-75.1624,0.733052,0.492482,140.00703,0.637489,3,0.481938,-11.573,1,0.306783,177.331,4,0.769675
48,Wild In The Country,Elvis Presley With The Jordanaires
49,I've Told Every Little Star,Linda Scott,37.7796,-122.42,0.837724,0.709667,137.01179,0.479012,3,0.159676,-8.018,1,0.029971,119.797,4,0.920863
50,Stick With Me Baby,The Everly Brothers,37.6318,-84.634402,0.15693,0.486344,117.13333,0.461401,10,0.359365,-15.334,1,0.037324,116.544,4,0.804523
51,My Kind Of Girl,Matt Monro,51.5072648,-0.1278328,0.945892,0.563851,170.80553,0.328059,5,0.222868,-11.21,1,0.042725,132.029,4,0.420675
52,The Wayward Wind,Gogi Grant,39.9523,-75.1624,0.878538,0.48606,176.91955,0.337537,11,0.287692,-9.799,1,0.035504,130.521,4,0.358396
53,Jimmy Martinez,Marty Robbins,33.531753,-112.177935,0.730273,0.359375,208.0,0.514947,3,0.272762,-9.145,1,0.053159,182.597,3,0.547011
54,Anna,Jorgen Ingmann & His Guitar
55,I Don't Mind,James Brown And The Famous Flames
56,You Can Depend On Me,Brenda Lee,33.844371,-84.47405,0.971784,0.561301,203.24957,0.125908,11,0.164572,-14.422,1,0.027418,94.946,3,0.257383
57,A Love Of My Own,Carla Thomas,35.169255,-89.990415,0.804722,0.422153,149.78612,0.286921,0,0.301728,-11.254,1,0.025924,92.865,3,0.43912
58,Buzz Buzz A-Diddle-It,Freddy Cannon,34.0535,-118.245,0.637225,0.499491,146.37859,0.878545,5,0.50093,-9.738,0,0.054646,117.504,4,0.741939
59,Take Good Care Of Her,Adam Wade,40.4383,-79.9975,0.740402,0.219273,152.24,0.327683,11,0.343891,-11.345,1,0.033355,80.442,3,0.39214
60,Just For Old Time's Sake,The McGuire Sisters,39.5099,-84.4036,0.859794,0.408886,171.91982,0.266478,11,0.241833,-14.709,1,0.030659,125.545,4,0.365525
61,Three Hearts In A Tangle,Roy Drusky,33.7483,-84.3911,0.437153,0.521169,157.8488,0.356375,0,0.108615,-8.818,1,0.02504,96.594,3,0.385403
62,Nobody Cares (about me),Jeanette (Baby) Washington
63,How Many Tears,Bobby Vee,46.927094,-96.834703,0.399016,0.558478,126.49565,0.839673,9,0.047781,-4.32,1,0.029935,96.245,4,0.965589
64,Cupid,Sam Cooke,41.850033,-87.650052,0.36235,0.490637,65.51465,0.558559,7,0.339423,-7.31,1,0.032651,121.906,4,0.890479
65,Please Stay,The Drifters,40.7146,-74.0071,0.563752,0.581024,138.65288,0.328214,10,0.092964,-12.558,1,0.035953,116.83,4,0.44118
66,Jura (I Swear I Love You),Les Paul And Mary Ford
67,Tonight (Could Be The Night),The Velvets featuring Virgil Johnson
68,I Fall To Pieces,Patsy Cline,39.169668,-78.16856,0.913361,0.576239,171.16,0.124866,10,0.180089,-14.276,1,0.031495,110.941,4,0.5564
69,Rainin' In My Heart,Slim Harpo,30.4951,-91.2528,0.680762,0.609271,136.86621,0.607941,9,0.076414,-10.642,0,0.026541,111.886,3,0.668009
70,Hats Off To Larry,Del Shannon,40.714269,-74.005973,0.382696,0.387118,207.82667,0.772236,6,0.171899,-11.249,1,0.446478,82.991,4,0.505095
71,Sacred,The Castells,38.450412,-122.783159,0.376476,0.355527,135.21288,0.647255,0,0.111312,-5.66,1,0.03117,109.799,4,0.375143
72,I'm Comin' On On Back To You,Jackie Wilson
73,Big Big World,Johnny Burnette,35.1497,-90.0489,0.874092,0.525888,137.68091,0.307657,4,0.351925,-11.205,1,0.031683,113.502,4,0.610753
74,San Antonio Rose,Floyd Cramer,33.0386,-92.1836,0.921977,0.526028,138.54912,0.580882,2,0.275986,-10.777,1,0.030514,175.207,4,0.961442
75,"I Like It Like That, Part 1",Chris Kenner,29.9899,-90.2421,0.823604,0.57778,134.04834,0.337561,10,0.323885,-18.548,1,0.184619,142.987,4,0.594792
76,The Girl's A Devil,The Dukays,41.8842,-87.6324,0.441555,0.714348,145.46494,0.549984,0,0.19035,-8.749,1,0.046053,128.985,4,0.940091
77,Ole Buttermilk Sky,Bill Black's Combo,35.8307,-85.9787,0.402559,0.89979,125.38853,0.520231,0,0.184762,-14.309,1,0.061556,116.956,4,0.965797
78,Big Boss Man,Jimmy Reed,33.43595,-90.820653,0.466835,0.7225,169.16898,0.360136,9,0.058841,-13.064,1,0.028876,78.182,4,0.834779
79,Yellow Bird,Lawrence Welk And His Orchestra
80,Lonely Life,Jackie Wilson,42.347021,-83.060184,0.719699,0.426013,147.08,0.542585,8,0.208579,-7.941,0,0.048184,126.43,4,0.862555
81,Milord,Teresa Brewer,41.6538,-83.5363,0.891058,0.674265,139.73333,0.390445,11,0.373013,-9.945,1,0.029793,107.419,4,0.760811
82,Right Or Wrong,Wanda Jackson,35.1303,-96.7763,0.494223,0.61585,157.13288,0.449104,5,0.802077,-7.762,1,0.040675,118.88,3,0.546331
83,Fool That I Am,Etta James,33.973951,-118.248405,0.638908,0.480491,205.92281,0.252679,1,0.265613,-12.261,1,0.037789,104.914,4,0.370908
84,Nature Boy,Bobby Darin,40.714269,-74.005973,0.611475,0.508359,145.21778,0.623377,4,0.398008,-2.697,0,0.028878,108.084,4,0.582221
85,Summertime,The Marcels,40.4383,-79.9975,0.672593,0.584293,141.50621,0.728016,10,0.106178,-8.723,1,0.033345,125.883,4,0.937753
86,Hold Back The Tears,The Delacardos
87,The Lonely Crowd,Teddy Vann
88,Daydreams,Johnny Crawford,34.0535,-118.245,0.893618,0.718213,121.20816,0.352676,6,0.087742,-13.74,1,0.029269,110.062,4,0.780858
89,Miss Fine,The New Yorkers,45.5118,-122.676,0.743782,0.578457,148.41288,0.874586,7,0.111173,-6.107,1,0.046973,140.11,4,0.888865
90,Lonesome Whistle Blues,Freddy King
91,(Theme From) Goodbye Again,Ferrante & Teicher
92,Watch Your Step,Bobby Parker,30.2203,-92.0171,0.673164,0.382264,164.94621,0.741526,9,0.385001,-8.998,1,0.042557,96.538,4,0.815441
93,(I've Got) Spring Fever,Little Willie John,42.3317,-83.0479,0.764954,0.616413,130.38236,0.33343,0,0.110913,-15.128,1,0.044098,66.909,4,0.800241
94,Mom And Dad's Waltz,Patti Page,36.348616,-95.604344,0.881204,0.447845,154.14961,0.17381,7,0.18748,-16.988,1,0.030265,84.283,3,0.338586
95,Sad Eyes (Don't You Cry),The Echoes,51.896,-2.08793,0.694932,0.299584,151.71873,0.408463,8,0.290992,-9.861,1,0.034619,127.032,4,0.75375
96,Ring Of Fire,Duane Eddy,42.120541,-77.048462,0.694115,0.598163,142.54667,0.524607,9,0.060436,-10.408,1,0.029179,122.612,4,0.837717
97,Joanie,Frankie Calen
98,Should I,The String-A-Longs,34.4052,-103.205,0.48086,0.763634,108.58667,0.394121,6,0.082216,-10.955,1,0.050077,123.095,4,0.961543
99,Blue Tomorrow,Billy Vaughn And His Orchestra
100,Bobby,Neil Scott,40.702898,-74.010241,0.710679,0.565875,162.43955,0.634382,5,0.076279,-5.384,1,0.037032,115.628,4,0.636498
