rank,song_name,artist,latitude,longitude,acousticness,danceability,duration,energy,key,liveness,loudness,mode,speechiness,tempo,time_signature,valence
1.0,The Twist,Chubby Checker,33.6265,-80.9474,0.125209,0.370053,180.24444,0.429645,4.0,0.333477,-12.249,1.0,0.034242,157.86,4.0,0.947418
2.0,Peppermint Twist - Part I,Joey Dee & the Starliters,37.1679,-95.845,0.724658,0.518807,99.02975,0.894239,1.0,0.379944,-5.818,1.0,0.087023,115.031,4.0,0.84429
3.0,The Lion Sleeps Tonight,The Tokens,34.0535,-118.245,0.535887,0.607319,155.45288,0.490527,6.0,0.105439,-8.722,1.0,0.031789,124.305,4.0,0.819085
4.0,Can't Help Falling In Love,Elvis Presley With The Jordanaires,,,,,,,,,,,,,,
5.0,I Know (You Don't Love Me No More),Barbara George,37.1679,-95.845,0.891639,0.73124,141.66463,0.5641,5.0,0.11624,-8.053,1.0,0.033757,122.034,4.0,0.943207
6.0,"Happy Birthday, Sweet Sixteen",Neil Sedaka,40.694481,-73.989319,0.621305,0.409224,161.38449,0.895445,1.0,0.622444,-3.882,1.0,0.063391,160.566,4.0,0.740815
7.0,Walk On By,Leroy Van Dyke,38.5784,-93.2393,0.587554,0.53778,139.86667,0.742968,10.0,0.423399,-10.904,1.0,0.042675,135.527,4.0,0.964853
8.0,Run To Him,Bobby Vee,46.927094,-96.834703,0.748378,0.327912,129.02413,0.362331,7.0,0.257429,-15.949,1.0,0.030852,99.551,4.0,0.678787
9.0,When I Fall In Love,The Lettermen,34.0535,-118.245,0.596385,0.213661,150.02077,0.219161,7.0,0.123917,-14.794,1.0,0.03068,136.993,4.0,0.257155
10.0,Norman,Sue Thompson,37.8372,-94.3587,0.722392,0.722788,138.89306,0.543348,9.0,0.244655,-8.87,1.0,0.030678,127.535,4.0,0.970086
11.0,Unchain My Heart,Ray Charles and his Orchestra,,,,,,,,,,,,,,
12.0,When The Boy In Your Arms (Is The Boy In Your Heart),Connie Francis,40.736101,-74.22509,0.956702,0.388176,164.08925,0.107849,6.0,0.100334,-16.788,1.0,0.030666,80.073,3.0,0.175408
13.0,Let There Be Drums,Sandy Nelson,34.0116,-118.492,0.263197,0.609955,138.98281,0.561649,11.0,0.064285,-18.306,0.0,0.032212,101.792,4.0,0.689692
14.0,Town Without Pity,Gene Pitney,41.8666667,-72.45,0.22355,0.461449,172.12735,0.479108,4.0,0.080519,-3.932,0.0,0.042061,120.756,3.0,0.445097
15.0,Baby It's You,The Shirelles,40.855103,-74.126916,0.861755,0.682071,156.2654,0.48076,7.0,0.166973,-8.528,0.0,0.029205,113.525,4.0,0.781846
16.0,Cotton Fields,The Highwaymen,39.7591,-84.1944,0.815912,0.723483,135.39478,0.247436,9.0,0.080514,-14.787,1.0,0.042583,135.346,4.0,0.560083
17.0,A Little Bitty Tear,Burl Ives,39.0538,-88.0234,0.890464,0.506611,127.5298,0.408103,0.0,0.145591,-9.328,1.0,0.051148,141.722,4.0,0.658198
18.0,The Wanderer,Dion,43.171614,-77.751736,0.223416,0.608012,169.66667,0.304409,2.0,0.087571,-20.504,1.0,0.039752,114.317,4.0,0.85312
19.0,Please Mr. Postman,The Marvelettes,42.2959,-83.3102,0.50577,0.775177,149.53333,0.720857,2.0,0.233418,-5.763,1.0,0.030567,121.066,4.0,0.964017
20.0,Goodbye Cruel World,James Darren,39.9523,-75.1624,0.712379,0.731608,143.50621,0.855084,0.0,0.18667,-5.255,1.0,0.031265,120.058,4.0,0.983784
21.0,Small Sad Sam,Phil McLean,,,,,,,,,,,,,,
22.0,Funny How Time Slips Away,Jimmy Elledge,36.1678,-86.7784,0.212841,0.421519,170.07179,0.42607,7.0,0.242926,-7.853,1.0,0.028638,76.984,4.0,0.463856
23.0,If You Gotta Make A Fool Of Somebody,James Ray,35.8444,-86.3943,0.893186,0.354423,120.45016,0.453931,7.0,0.165226,-14.472,1.0,0.03378,142.431,3.0,0.692629
24.0,Dear Ivan,Jimmy Dean,34.1977,-101.698,0.773435,0.495673,238.66621,0.091646,5.0,0.123343,-23.844,1.0,0.492728,180.017,4.0,0.327264
25.0,Revenge,Brook Benton,34.313477,-80.612489,0.246079,0.706888,145.36218,0.416793,11.0,0.111521,-9.569,1.0,0.044178,127.005,4.0,0.619299
26.0,Dear Lady Twist,Gary U.S. Bonds,30.3314,-81.6558,0.199584,0.437791,153.57288,0.903018,9.0,0.579017,-8.267,0.0,0.141748,138.96,4.0,0.914211
27.0,Irresistible You,Bobby Darin,40.714269,-74.005973,0.260993,0.478615,155.79955,0.863816,3.0,0.142637,-4.657,1.0,0.043009,82.355,4.0,0.94079
28.0,Moon River,Henry Mancini And His Orchestra,,,,,,,,,,,,,,
29.0,Break It To Me Gently,Brenda Lee,33.844371,-84.47405,0.865294,0.494684,156.13342,0.177099,3.0,0.268,-13.627,1.0,0.027568,92.762,3.0,0.563977
30.0,Rock-A-Hula Baby,Elvis Presley With The Jordanaires,,,,,,,,,,,,,,
31.0,Twist-Her,Bill Black's Combo,35.8307,-85.9787,0.542762,0.703555,127.98667,0.867968,0.0,0.038176,-2.796,1.0,0.048516,156.912,4.0,0.978715
32.0,Do-Re-Mi,Lee Dorsey,29.9537,-90.0777,0.84545,0.713874,131.74667,0.530506,5.0,0.327942,-8.577,1.0,0.043473,74.187,4.0,0.9609
33.0,Letter Full Of Tears,Gladys Knight And The Pips,,,,,,,,,,,,,,
34.0,Turn On Your Love Light,Bobby Bland,,,,,,,,,,,,,,
35.0,Dreamy Eyes,Johnny Tillotson,30.3314,-81.6558,0.862441,0.513709,144.36,0.385354,4.0,0.113964,-10.436,1.0,0.03185,124.365,3.0,0.50641
36.0,Pocketful Of Miracles,Frank Sinatra,40.746851,-74.033934,0.918998,0.582838,154.77506,0.231976,10.0,0.381485,-17.72,0.0,0.038376,119.889,1.0,0.60561
37.0,There's No Other (Like My Baby),The Crystals,40.6551,-73.9489,0.404589,0.377172,143.96,0.31336,7.0,0.421775,-11.599,0.0,0.028339,94.198,3.0,0.279812
38.0,'Til,The Angels,39.9523,-75.1624,0.70423,0.231497,147.82567,0.369394,0.0,0.067985,-8.78,1.0,0.028724,171.449,3.0,0.329443
39.0,Multiplication,Bobby Darin,40.714269,-74.005973,0.801016,0.604769,134.16177,0.481431,0.0,0.138726,-16.793,1.0,0.045012,90.029,4.0,0.96578
40.0,I Don't Know Why,Linda Scott,37.7796,-122.42,0.960474,0.311594,142.44571,0.091181,8.0,0.118124,-12.958,0.0,0.035625,183.406,3.0,0.244017
41.0,Gypsy Woman,The Impressions,41.850033,-87.650052,0.601882,0.765215,185.17288,0.647945,0.0,0.117303,-7.411,1.0,0.043204,127.68,4.0,0.631422
42.0,Jambalaya (On The Bayou),Fats Domino,29.9544444,-90.075,0.00158,0.414371,208.28844,0.690413,1.0,0.524776,-11.863,1.0,0.066541,102.561,4.0,0.924767
43.0,Poor Fool,Ike & Tina Turner,39.124677,-88.540821,0.583101,0.817079,155.53288,0.521653,3.0,0.229833,-10.503,0.0,0.071837,118.603,4.0,0.971088
44.0,Tuff,Ace Cannon,33.784,-89.8099,0.934656,0.673929,143.02109,0.073655,10.0,0.087278,-17.166,1.0,0.038309,76.553,4.0,0.714002
45.0,Shadrack,Brook Benton,34.313477,-80.612489,0.748912,0.439059,142.28898,0.774679,6.0,0.14488,-8.102,1.0,0.121597,78.74,3.0,0.843966
46.0,Smoky Places,The Corsairs Featuring Jay Bird Uzzell,,,,,,,,,,,,,,
47.0,Flying Circle,Frank Slay And His Orchestra,,,,,,,,,,,,,,
48.0,She's Everything (I Wanted You To Be),Ral Donner,41.8842,-87.6324,0.324254,0.611551,153.46621,0.638854,2.0,0.08491,-8.509,1.0,0.056475,131.27,4.0,0.776313
49.0,Duke Of Earl,Gene Chandler,41.8842,-87.6324,0.691752,0.549186,138.41288,0.539535,1.0,0.095564,-5.213,0.0,0.032815,106.729,4.0,0.447997
50.0,Maria,Roger Williams,41.6612,-71.5559,0.815306,0.320174,169.61197,0.148721,0.0,0.10768,-17.008,1.0,0.03244,111.008,3.0,0.229681
51.0,Little Altar Boy,Vic Dana,42.8854,-78.8785,0.953864,0.188615,197.13288,0.311052,11.0,0.1202,-8.102,1.0,0.031069,86.75,4.0,0.177973
52.0,So Deep,Brenda Lee,33.844371,-84.47405,0.955681,0.664793,123.56,0.678837,10.0,0.22212,-10.222,1.0,0.055302,141.42,4.0,0.9185
53.0,Walkin' With My Angel,Bobby Vee,46.927094,-96.834703,0.497563,0.68925,146.72,0.604122,5.0,0.093815,-10.606,1.0,0.051865,121.011,4.0,0.96788
54.0,Go On Home,Patti Page,36.348616,-95.604344,0.722178,0.565675,146.69333,0.164265,3.0,0.118229,-19.376,1.0,0.02912,83.412,4.0,0.473577
55.0,Hey! Little Girl,Del Shannon,40.714269,-74.005973,0.236006,0.507143,152.22621,0.898054,8.0,0.18059,-6.997,1.0,0.053715,158.461,4.0,0.960964
56.0,Moon River,Jerry Butler,41.8842,-87.6324,0.225128,0.278426,163.18621,0.429552,2.0,0.141753,-11.667,1.0,0.031811,109.324,4.0,0.259197
57.0,The Greatest Hurt,Jackie Wilson,42.347021,-83.060184,0.601219,0.364247,187.46508,0.577197,7.0,0.171152,-5.466,1.0,0.028208,79.986,3.0,0.417202
58.0,Let's Twist Again,Chubby Checker,33.6265,-80.9474,0.233165,0.553245,140.13288,0.859035,8.0,0.15786,-6.135,1.0,0.063635,83.908,4.0,0.891661
59.0,Johnny Will,Pat Boone,36.1678,-86.7784,0.783237,0.749856,148.57333,0.526351,9.0,0.086399,-8.099,1.0,0.043682,92.888,4.0,0.917985
60.0,Let's Go Trippin',Dick Dale and The Del-Tones,,,,,,,,,,,,,,
61.0,It Will Stand,The Showmen,36.8468,-76.2851,0.992318,0.613945,149.38621,0.503265,9.0,0.184134,-12.421,1.0,0.08018,138.935,4.0,0.398
62.0,"Turn Around, Look At Me",Glen Campbell,34.0313889,-93.5027778,0.823914,0.366579,155.29333,0.450773,5.0,0.369982,-6.998,1.0,0.032235,91.038,3.0,0.190006
63.0,I'm Blue (The Gong-Gong Song),The Ikettes,37.1679,-95.845,0.525103,0.600223,146.77855,0.487277,6.0,0.20431,-4.998,0.0,0.034354,112.866,4.0,0.897548
64.0,Let Me In,The Sensations,45.2623,-69.0125,0.23913,0.610965,188.65587,0.940289,10.0,0.458804,-6.768,1.0,0.048118,130.471,4.0,0.806554
65.0,Up A Lazy River,Si Zentner And His Orchestra,,,,,,,,,,,,,,
66.0,Your Ma Said You Cried In Your Sleep Last Night,Kenny Dino,27.9758,-81.5411,0.824459,0.546302,138.11955,0.432783,3.0,0.078722,-8.531,1.0,0.032842,133.596,4.0,0.783251
67.0,Crying In The Rain,The Everly Brothers,37.6318,-84.634402,0.734231,0.624563,119.902,0.359073,2.0,0.223976,-10.682,1.0,0.027893,97.66,4.0,0.503807
68.0,Twistin' All Night Long,Danny & The Juniors with Freddy Cannon,,,,,,,,,,,,,,
69.0,I Could Have Loved You So Well,Ray Peterson,40.7146,-74.0071,0.806735,0.493223,132.23955,0.535254,10.0,0.128964,-9.119,1.0,0.050202,86.238,4.0,0.488177
70.0,My Boomerang Won't Come Back,Charlie Drake,51.4938,-0.10059,0.853583,0.583234,206.8517,0.946578,9.0,0.394569,-2.709,0.0,0.391365,106.179,4.0,0.706033
71.0,Lost Someone,James Brown And The Famous Flames,,,,,,,,,,,,,,
72.0,But On The Other Hand Baby,Ray Charles and his Orchestra,,,,,,,,,,,,,,
73.0,What's The Reason,Bobby Edwards,,,,,,,,,,,,,,
74.0,Big Bad John,Jimmy Dean,34.1977,-101.698,0.606463,0.491443,180.50567,0.286084,8.0,0.111503,-16.588,1.0,0.272627,177.619,4.0,0.471116
75.0,I Need Some One,The Belmonts,40.8572,-73.8568,0.660062,0.566608,154.85619,0.373662,3.0,0.655568,-16.333,0.0,0.041345,78.641,4.0,0.827581
76.0,Surfer's Stomp,The Marketts,37.1679,-95.845,0.145156,0.662372,122.54485,0.476609,1.0,0.115503,-3.108,1.0,0.044491,144.233,4.0,0.887782
77.0,The Lost Penny,Brook Benton,34.313477,-80.612489,0.965391,0.216445,212.46667,0.315535,0.0,0.393695,-14.659,1.0,0.029802,85.095,3.0,0.393908
78.0,What's So Good About Good-by,The Miracles,,,,,,,,,,,,,,
79.0,Happy Jose (Ching-Ching),Jack Ross,55.9957,-3.76654,0.167641,0.581227,152.68,0.778008,7.0,0.135253,-5.44,1.0,0.044076,82.459,4.0,0.939156
80.0,To A Sleeping Beauty,Jimmy Dean,34.1977,-101.698,0.945476,0.377729,358.21288,0.063187,2.0,0.102803,-26.497,1.0,0.103395,171.589,3.0,0.290696
81.0,Tears From An Angel,Troy Shondell,41.0755,-85.0991,0.917762,0.339987,143.39955,0.457518,3.0,0.290671,-12.367,1.0,0.034858,199.89,4.0,0.722761
82.0,Percolator (Twist),Billy Joe & The Checkmates,,,,,,,,,,,,,,
83.0,I Told The Brook,Marty Robbins,33.531753,-112.177935,0.966421,0.701981,179.32,0.33312,0.0,0.108144,-10.099,1.0,0.033649,113.4,3.0,0.423703
84.0,A Little Too Much,Clarence Henry,,,,,,,,,,,,,,
85.0,Chattanooga Choo Choo,Floyd Cramer,33.0386,-92.1836,0.508692,0.649328,128.07955,0.617631,0.0,0.112587,-11.8,1.0,0.126537,87.578,4.0,0.869591
86.0,Afrikaan Beat,Bert Kaempfert And His Orchestra,,,,,,,,,,,,,,
87.0,There'll Be No Next Time,Jackie Wilson,42.347021,-83.060184,0.796814,0.288356,179.76,0.42056,7,0.798059,-8.679,1,0.032581,82.825,3,0.492787
88.0,That's My Pa,Sheb Wooley,35.2155,-99.8667,0.753336,0.678803,147.47955,0.551329,7.0,0.113872,-12.967,1.0,0.109739,111.378,4.0,0.612751
89.0,Just Got To Know,Jimmy McCracklin,37.5407,-77.4336,0.210653,0.806569,196.56,0.480374,10.0,0.042712,-8.995,1.0,0.045656,76.822,4.0,0.847063
90.0,Room Full Of Tears,The Drifters,40.7146,-74.0071,0.533968,0.525835,164.22667,0.42742,5.0,0.321449,-9.267,1.0,0.02967,81.76,4.0,0.73257
91.0,A Little Bitty Tear,Wanda Jackson,35.1303,-96.7763,0.775539,0.470656,136.59179,0.310655,0,0.47659,-14.905,1,0.034166,132.745,4,0.893805
92.0,Jamie,Eddie Holland,37.1679,-95.845,0.660035,0.608651,29.99973,0.698774,7,0.681382,-6.182,0,0.050913,121.875,4,0.936129
93.0,Blue Water Line,The Brothers Four,47.6036,-122.329,0.692691,0.440808,171.48,0.434388,9,0.262115,-13.874,1,0.093372,165.314,4,0.871372
94.0,The Basie Twist,Count Basie & His Orch.,,,,,,,,,,,,,,
95.0,A Sunday Kind Of Love,Jan & Dean,34.0535,-118.245,0.687988,0.562016,131.99673,0.596714,5,0.310044,-10.724,1,0.033597,113.707,4,0.955972
96.0,Chip Chip,Gene McDaniels,39.103,-94.5831,0.835581,0.669013,139.95927,0.502141,0,0.331483,-13.101,1,0.059583,136.077,4,0.960146
97.0,Nite Owl,Dukays,41.8842,-87.6324,0.792282,0.638941,150.95955,0.59348,10,0.048284,-10.211,1,0.03219,126.718,4,0.966519
98.0,Portrait Of A Fool,Conway Twitty,34.52955,-90.59177,0.945153,0.320426,147.25052,0.269927,0,0.136056,-11.227,1,0.033659,185.352,3,0.300459
99.0,Oliver Twist,Rod McKuen,37.8051,-122.273,0.647436,0.634144,100.95701,0.766027,8,0.051654,-9.552,1,0.175513,91.814,4,0.901116
100.0,Where Have All The Flowers Gone,The Kingston Trio,37.4447,-122.161,0.921224,0.515234,182.10621,0.151816,2,0.60336,-24.532,1,0.039347,144.188,4,0.651276
