rank,song_name,artist,latitude,longitude,acousticness,danceability,duration,energy,key,liveness,loudness,mode,speechiness,tempo,time_signature,valence
1,Gangsta's Paradise,Coolio,33.8953,-118.224,0.075435,0.562665,239.94218,0.674207,8,0.532198,-5.87,1,0.060686,79.989,4,0.421002
2,Waterfalls,TLC,33.844371,-84.47405,0.284814,0.765247,279.72,0.458458,1,0.063331,-9.416,1,0.119659,171.794,4,0.789415
3,Creep,TLC,33.844371,-84.47405,0.024117,0.803337,235.69288,0.552983,5,0.046797,-6.421,0,0.035262,92.986,4,0.781356
4,Kiss From A Rose,Seal,51.5072648,-0.1278328,0.64277,0.491303,248.53288,0.301594,0,0.251118,-13.635,1,0.028387,131.904,3,0.225963
5,On Bended Knee,Boyz II Men,39.9523,-75.1624,0.485058,0.625157,272.39955,0.612348,8,0.307752,-5.013,1,0.031578,116.475,4,0.253774
6,Another Night,Real McCoy,52.5161,13.377,0.094311,0.811883,235.81333,0.88275,7,0.092243,-7.582,1,0.040134,125.927,4,0.873586
7,Fantasy,Mariah Carey,40.714269,-74.005973,0.046518,0.828359,285.33288,0.693266,2,0.112339,-5.76,1,0.107749,102.503,4,0.817056
8,Take A Bow,Madonna,40.702898,-74.010241,0.390461,0.562362,270.73333,0.404533,8,0.081331,-7.506,1,0.02487,79.921,4,0.280946
9,Don't Take It Personal (Just One Of Dem Days),Monica,33.844371,-84.47405,0.006677,0.710773,239.61601,0.388196,5,0.060951,-12.923,0,0.069186,88.531,4,0.627216
10,This Is How We Do It,Montell Jordan,33.973951,-118.248405,0.00352,0.838619,183.02621,0.627649,0,0.420407,-7.846,1,0.039735,103.401,4,0.74328
11,I Know,Dionne Farris,40.615202,-74.414995,0.048654,0.590763,225.86667,0.961175,7,0.268991,-6.829,1,0.195036,103.399,4,0.497732
12,Water Runs Dry,Boyz II Men,39.9523,-75.1624,0.489048,0.581209,201.53333,0.421322,0,0.098537,-11.451,1,0.026107,89.615,4,0.551765
13,Freak Like Me,Adina Howard,42.984226,-85.629101,0.007802,0.692862,267.7024,0.641327,2,0.036228,-11.839,1,0.061955,92.994,4,0.60589
14,Run-Around,Blues Traveler,40.343625,-74.693953,0.061442,0.601201,280.09288,0.901876,7,0.088009,-5.662,1,0.125275,75.861,4,0.82172
15,I Can Love You Like That,All-4-One,34.0535,-118.245,0.087541,0.68089,262.30621,0.509922,8,0.320472,-9.988,1,0.024963,91.031,4,0.588153
16,Have You Ever Really Loved A Woman?,Bryan Adams,44.233333,-76.483333,0.512747,0.571185,291.66667,0.476972,7,0.09295,-10.204,1,0.03271,145.67,3,0.339196
17,Always,Bon Jovi,40.430006,-74.417344,0.110576,0.300904,250.34667,0.474623,7,0.968406,-11.622,0,0.035947,129.106,4,0.162833
18,Boombastic / In The Summertime,Shaggy
19,Total Eclipse Of The Heart,Nicki French,40.2012,-77.1892,0.020661,0.600079,209.81506,0.976181,0,0.064815,-5.068,1,0.033797,135.029,4,0.862646
20,You Gotta Be,Des'ree,51.5072648,-0.1278328,0.566769,0.65718,240.52803,0.478976,5,0.588388,-15.91,1,0.046797,95.176,4,0.633532
21,You Are Not Alone,Michael Jackson,41.590686,-87.319937,0.620915,0.636076,361.38621,0.420646,11,0.067448,-8.707,1,0.029025,119.477,4,0.194428
22,Hold My Hand,Hootie and The Blowfish
23,One More Chance-Stay With Me,Notorious B.I.G.,40.714269,-74.005973,0.000395,0.739388,275.39955,0.637013,9,0.085081,-8.199,0,0.0402,90.959,4,0.753599
24,Here Comes The Hotstepper,Ini Kamoze,18.2788,-76.8842,0.012936,0.604994,242.53288,0.638027,7,0.15309,-6.728,1,0.303691,200.648,4,0.555999
25,Candy Rain,Soul For Real,40.7636,-73.3698,0.003783,0.578966,276.72925,0.732173,7,0.341014,-9.066,1,0.106526,192.612,4,0.601752
26,Let Her Cry,Hootie and The Blowfish
27,I Believe,Blessid Union Of Souls,39.342034,-84.106916,0.674844,0.524158,281.77288,0.366094,11,0.07361,-8.49,1,0.027876,142.116,4,0.253567
28,Red Light Special,TLC,33.844371,-84.47405,0.414878,0.693414,271.16757,0.352766,10,0.175098,-14.516,0,0.029983,94.533,3,0.602972
29,Runaway,Janet Jackson,41.590686,-87.319937,0.400598,0.785161,214.93288,0.849346,1,0.056112,-5.133,1,0.034119,109.149,4,0.866423
30,Strong Enough,Sheryl Crow,36.23618,-90.05565,0.709914,0.549133,190.62667,0.431082,2,0.106116,-8.03,1,0.030731,154.617,3,0.513061
31,Colors Of The Wind,Vanessa Williams,41.0801,-73.8587,0.45296,0.565182,258.70621,0.397246,7,0.144046,-12.486,0,0.049342,83.931,4,0.120927
32,Someone To Love,Jon B.,33.786594,-118.298662,0.135183,0.669923,272.35955,0.452894,6,0.127073,-8.603,0,0.025733,136.123,4,0.303684
33,Only Wanna Be With You,Hootie and The Blowfish
34,If You Love Me,Brownstone,59.8585,17.6441,0.369762,0.660725,211.71955,0.698863,11,0.212327,-6.091,0,0.061255,95.183,4,0.20172
35,In The House Of Stone And Light,Martin Page,50.9099,-1.40732,0.307904,0.634058,300.79955,0.788403,11,0.588501,-10.767,1,0.052667,89.271,4,0.797688
36,I Got 5 On It,Luniz,37.8051,-122.273,0.274993,0.661462,254.89288,0.62812,10,0.146905,-8.94,0,0.292254,86.884,4,0.660271
37,Baby,Brandy,31.2436111,-90.4530556,0.038198,0.806224,313.16753,0.651609,5,0.192991,-6.778,0,0.054151,91.044,4,0.881539
38,Run Away,Real McCoy,52.5161,13.377,0.003259,0.713742,232.02621,0.932626,10,0.069306,-9.641,0,0.040587,131.357,4,0.790427
39,As I Lay Me Down,Sophie B. Hawkins,40.7146,-74.0071,0.601225,0.638578,249.16,0.729445,10,0.229877,-8.776,1,0.039551,83.746,4,0.666075
40,He's Mine,Mokenstef,38.2207,-90.3777,0.081269,0.634322,249.45556,0.53763,11,0.132655,-8.662,1,0.03536,64.976,4,0.359807
41,December,Collective Soul,33.5438,-84.2277,0.588563,0.683774,284.99955,0.635359,0,0.228427,-5.765,1,0.027176,121.996,4,0.357345
42,I'll Be There For You-You're All I Need To Get By,Method Man-Mary J. Blige
43,Shy Guy,Diana King,17.9948,-76.9516,0.02082,0.702414,220.12,0.836653,11,0.123485,-4.953,0,0.064417,94.111,4,0.620551
44,I'm The Only One,Melissa Etheridge,39.279656,-94.982216,0.045463,0.616876,294.99955,0.474322,0,0.063101,-9.651,1,0.031295,84.845,4,0.620704
45,Every Little Thing I Do,Soul For Real,40.7636,-73.3698,0.002429,0.71313,166.79955,0.512466,7,0.287563,-6.727,0,0.036997,99.325,4,0.389911
46,Before I Let You Go,BLACKstreet,40.714269,-74.005973,0.154811,0.43081,186.20082,0.772306,6,0.252667,-6.476,1,0.081437,70.342,4,0.442744
47,Big Poppa / Warning,Notorious B.I.G.
48,Sukiyaki,4 P.M.
49,I Wanna Be Down,Brandy,31.2436111,-90.4530556,0.169456,0.835496,187.1429,0.665004,11,0.242969,-3.632,0,0.039068,92.808,4,0.907355
50,I'll Make Love To You,Boyz II Men,39.9523,-75.1624,0.112294,0.559399,236.84,0.472314,2,0.076728,-8.311,1,0.024376,142.513,3,0.232214
51,Dear Mama / Old School,2Pac
52,Hold On,Jamie Walters,42.3586,-71.0567,0.033879,0.571,264.55955,0.557472,0,0.109088,-8.599,1,0.028158,126.215,4,0.212745
53,Keep Their Heads Ringin',Dr. Dre,34.0535,-118.245,0.021792,0.46165,126.25288,0.857904,0,0.343304,-3.966,1,0.197738,95.846,4,0.215061
54,The Rhythm Of The Night,Corona,42.5038,12.5735,0.001297,0.692518,223.51955,0.945361,8,0.113762,-5.401,1,0.035115,127.795,4,0.729091
55,Roll To Me,Del Amitri,55.8578,-4.24251,0.415412,0.566919,134.15955,0.817319,6,0.076033,-5.885,1,0.037595,150.061,4,0.893189
56,Scream / Childhood,Michael Jackson and Janet Jackson
57,Freek'n You,Jodeci,35.26002,-80.804151,0.018803,0.62586,257.72866,0.695395,5,0.080433,-3.729,0,0.027913,134.102,4,0.207904
58,I Wish,Skee-lo,33.973951,-118.248405,0.007362,0.703973,251.73333,0.822751,7,0.355993,-6.936,1,0.183221,97.876,4,0.642094
59,Believe,Elton John,51.5968712,-0.3770142,0.20723,0.473711,281.66621,0.600562,0,0.438858,-7.74,0,0.027378,138.025,4,0.245688
60,Carnival,Natalie Merchant,42.08016,-79.25671,0.225011,0.600807,361.10621,0.480576,6,0.031324,-11.436,0,0.070662,188.297,4,0.780723
61,You Don't Know How It Feels,Tom Petty,29.648993,-82.324515,0.061795,0.76987,289.47701,0.487616,9,0.182472,-7.612,1,0.032521,144.193,4,0.807715
62,Back For Good,Take That,53.5,-2.216667,0.529318,0.472906,251.21288,0.649769,4,0.942658,-9.446,1,0.037733,78.966,4,0.652831
63,Tootsee Roll,69 Boyz,30.3314,-81.6558,0.048483,0.868334,261.35955,0.729763,9,0.19546,-12.562,0,0.250346,133.042,4,0.699091
64,You Want This / 70's Love Groove,Janet Jackson
65,Tell Me,Groove Theory,40.7146,-74.0071,0.212671,0.801988,221.67465,0.125647,10,0.112271,-20.03,0,0.042513,93.162,4,0.911924
66,Can't You See,Total,40.7146,-74.0071,0.204285,0.713424,271.11955,0.676264,8,0.319,-6.675,0,0.060243,86.272,4,0.803368
67,All I Wanna Do,Sheryl Crow,36.23618,-90.05565,0.179064,0.822813,245.52444,0.378733,9,0.225363,-15.805,1,0.036854,120.168,4,0.968517
68,This Lil' Game We Play,Subway,51.1642,10.4542,0.154481,0.754105,295.57288,0.435454,10,0.092784,-10.562,0,0.067633,121.547,4,0.597651
69,Come And Get Your Love,Real McCoy,52.5161,13.377,0.027876,0.736402,194.59955,0.930952,8,0.340689,-3.865,1,0.04066,108.839,4,0.794787
70,This Ain't A Love Song,Bon Jovi,40.430006,-74.417344,0.23666,0.35301,298.07955,0.407028,4,0.151934,-15.9,1,0.035516,87.616,3,0.219075
71,Secret,Madonna,40.702898,-74.010241,0.098158,0.815785,304.93288,0.661445,1,0.148031,-7.89,1,0.027209,99.978,4,0.453337
72,Player's Anthem,Junior M.A.F.I.A.,40.7146,-74.0071,0.212748,0.84225,321.98485,0.54421,11,0.101315,-7.977,0,0.393531,88.304,4,0.580612
73,Feel Me Flow,Naughty By Nature,40.77185,-74.207039,0.002546,0.699395,201.90621,0.803271,6,0.124181,-3.203,1,0.069225,90.798,4,0.899819
74,Every Day Of The Week,Jade,51.5063,-0.12714,0.004046,0.758401,315.59955,0.684279,1,0.074421,-8.88,1,0.033918,97.383,4,0.824486
75,The Sweetest Days,Vanessa Williams,41.0801,-73.8587,0.750854,0.46944,211.25288,0.292753,10,0.168685,-11.093,1,0.028968,139.831,4,0.06267
76,Short Dick Man,20 Fingers feat. Gillette
77,Brokenhearted,Brandy,31.2436111,-90.4530556,0.590499,0.671013,311.32689,0.148841,1,0.105957,-19.708,1,0.035094,139.99,4,0.336636
78,No More &quot;I Love You's&quot;,Annie Lennox
79,You Used To Love Me,Faith Evans,40.736101,-74.22509,0.237179,0.684129,273.48417,0.470808,0,0.141131,-7.464,1,0.033908,87.769,4,0.688811
80,Constantly,Immature
81,"Hold Me, Thrill Me, Kiss Me, Kill Me",U2,53.3330556,-6.2488889,0.004085,0.361769,353.08757,0.543599,8,0.955543,-16.651,1,0.037258,86.69,4,0.366451
82,100% Pure Love,Crystal Waters,39.9523,-75.1624,0.084045,0.797043,250.27955,0.815379,1,0.231345,-6.488,1,0.044207,120.256,4,0.773345
83,Ask Of You,Raphael Saadiq,37.786027,-122.223779,0.081848,0.679188,254.4,0.410993,1,0.279196,-12.976,1,0.037114,84.917,4,0.774649
84,Sugar Hill,Az,40.694481,-73.989319,0.002248,0.769635,138.79955,0.64339,7,0.230356,-9.11,1,0.212177,92.168,4,0.573492
85,Good,Better Than Ezra,30.4434,-91.187,0.092925,0.586858,207.94803,0.640149,6,0.184018,-9.046,1,0.035214,107.404,4,0.728319
86,Brown Sugar,D'angelo,37.553758,-77.460262,0.49901,0.717099,262.93333,0.492452,9,0.094217,-8.371,1,0.157647,83.072,4,0.583296
87,Turn The Beat Around,Gloria Estefan,25.729,-80.2374,0.102822,0.774392,241.81506,0.510741,6,0.125492,-16.165,0,0.034054,129.885,4,0.886339
88,'Til You Do Me Right,After 7,39.7669,-86.15,0.310544,0.623737,295.00145,0.458031,5,0.071083,-9.089,1,0.026678,153.564,4,0.503976
89,1st Of Tha Month,Bone Thugs-N-Harmony,41.520052,-81.556235,0.309069,0.65601,289.88757,0.552205,2,0.722401,-12.217,1,0.196301,146.584,4,0.682114
90,Like The Way I Do-If I Wanted To,Melissa Etheridge
91,I Live My Life For You,Firehouse,35.26002,-80.804151,0.052893,0.50668,261.90626,0.519065,1,0.131134,-7.654,1,0.028878,141.816,4,0.32522
92,Dream About You-Funky Melody,Stevie B
93,Cotton Eye Joe,Rednex,62.1984,17.5514,0.024476,0.746047,194.23955,0.887061,9,0.098633,-13.164,0,0.050812,131.987,4,0.78629
94,Thank You,Boyz II Men,39.9523,-75.1624,0.022694,0.678206,275.59955,0.707489,1,0.016872,-8.964,1,0.085675,95.128,4,0.920246
95,I'll Stand By You,Pretenders,51.5072648,-0.1278328,0.001105,0.307297,275.39955,0.74603,7,0.94164,-5.648,1,0.04339,135.795,4,0.128155
96,I Miss You,N II U,40.655071,-73.948883,0.379988,0.751194,233.18404,0.273311,7,0.086691,-12.806,0,0.067513,119.889,4,0.371281
97,Give It 2 You,Da Brat,33.7483,-84.3911,0.002581,0.857225,188.63955,0.630167,6,0.098179,-8.257,1,0.222779,91.947,4,0.708099
98,Best Friend,Brandy,31.2436111,-90.4530556,0.19851,0.689915,288.62667,0.537905,6,0.064201,-4.873,0,0.03582,179.962,4,0.583768
99,Misery,Soul Asylum,44.979,-93.2649,0.000371,0.357457,241.39202,0.602274,0,0.154001,-10.157,1,0.033784,113.068,4,0.32238
100,Can't Stop Lovin' You,Van Halen,33.786594,-118.298662,0.143769,0.596927,247.49823,0.901263,9,0.252271,-5.394,1,0.038126,118.002,4,0.584783
